"관리기관명",소재지도로명주소,소재지지번주소,설치목적구분,카메라대수,카메라화소수,촬영방면정보,보관일수,설치년월,관리기관전화번호,위도,경도,데이터기준일자
"대구광역시 달서구청",대구광역시 달서구 두류남길 60(두류동),대구광역시 달서구 두류동 804-141,생활방범,1,200,회전,30,2015-01,053-667-3900,35.85726389,128.5712667,2019-09-16
"대구광역시 달서구청",대구광역시 달서구 본리서3길 5(본리동),대구광역시 달서구 본리동 1210-1,생활방범,1,200,회전,30,2015-01,053-667-3900,35.8395174,128.5299165,2019-09-16
"대구광역시 달서구청",대구광역시 달서구 호산동로36북길 60(호산동),대구광역시 달서구 호산동 357-41,생활방범,1,200,회전,30,2015-01,053-667-3900,35.85140387,128.4879588,2019-09-16
"대구광역시 달서구청",대구광역시 달서구 월배로68길 48(송현동),대구광역시 달서구 송현동 798-321,생활방범,1,200,고정,30,2012-01,053-667-3900,35.82413495,128.549215,2019-09-16
"대구광역시 달서구청",대구광역시 달서구 상화로15길 27(진천동),대구광역시 달서구 진천동 460,생활방범,1,200,회전,30,2015-01,053-667-3900,35.80923876,128.5223564,2019-09-16
"대구광역시 달서구청",대구광역시 달서구 월배로32길 58(상인동),대구광역시 달서구 상인동 344-15,생활방범,1,200,고정,30,2012-01,053-667-3900,35.81433873,128.5329579,2019-09-16
"대구광역시 달서구청",대구광역시 달서구 당산로45길 17(감삼동),대구광역시 달서구 감삼동 31-5,생활방범,1,200,회전,30,2015-01,053-667-3900,35.85613589,128.5464247,2019-09-16
"대구광역시 달서구청",대구광역시 달서구 죽전4길 95(감삼동),대구광역시 달서구 감삼동 32-34,생활방범,1,200,회전,30,2015-01,053-667-3900,35.85556385,128.5453689,2019-09-16
"대구광역시 달서구청",대구광역시 달서구 달구벌대로323길 68(감삼동),대구광역시 달서구 감삼동 35-1,생활방범,1,200,회전,30,2015-01,053-667-3900,35.85537136,128.5421015,2019-09-16
"대구광역시 달서구청",대구광역시 달서구 달구벌대로323길 55(감삼동),대구광역시 달서구 감삼동 37-25,생활방범,1,200,회전,30,2015-01,053-667-3900,35.85492167,128.5419056,2019-09-16
"대구광역시 달서구청",대구광역시 달서구 달구벌대로323길 23(감삼동),대구광역시 달서구 감삼동 44-15,생활방범,1,200,회전,30,2015-01,053-667-3900,35.85344228,128.5421547,2019-09-16
"대구광역시 달서구청",대구광역시 달서구 당산로41길 62(감삼동),대구광역시 달서구 감삼동 54-6,생활방범,1,200,회전,30,2015-01,053-667-3900,35.8543535,128.5451171,2019-09-16
"대구광역시 달서구청",대구광역시 달서구 감삼4길 70(감삼동),대구광역시 달서구 감삼동 126-31,생활방범,1,200,회전,30,2015-01,053-667-3900,35.85150911,128.5451118,2019-09-16
"대구광역시 달서구청",대구광역시 달서구 감삼4길 55(감삼동),대구광역시 달서구 감삼동 129-19,생활방범,1,200,회전,30,2015-01,053-667-3900,35.85149511,128.5442117,2019-09-16
"대구광역시 달서구청",대구광역시 달서구 감삼북길 111(감삼동),대구광역시 달서구 감삼동 134-1,생활방범,1,200,회전,30,2015-01,053-667-3900,35.8511397,128.5426593,2019-09-16
"대구광역시 달서구청",대구광역시 달서구 감삼2길 18(감삼동),대구광역시 달서구 감삼동 165-17,생활방범,1,200,회전,30,2015-01,053-667-3900,35.84933319,128.5399457,2019-09-16
"대구광역시 달서구청",대구광역시 달서구 당산로21길 8(감삼동),대구광역시 달서구 감삼동 207-1,생활방범,1,200,회전,30,2015-01,053-667-3900,35.84704953,128.5446573,2019-09-16
"대구광역시 달서구청",대구광역시 달서구 당산로21길 46(감삼동),대구광역시 달서구 감삼동 201-2,생활방범,1,200,회전,30,2015-01,053-667-3900,35.84733873,128.5425005,2019-09-16
"대구광역시 달서구청",대구광역시 달서구 와룡로32길 109(감삼동),대구광역시 달서구 감삼동 205-8,생활방범,1,200,회전,30,2015-01,053-667-3900,35.846181,128.5434248,2019-09-16
"대구광역시 달서구청",대구광역시 달서구 와룡로28길 115(감삼동),대구광역시 달서구 감삼동 206-72,생활방범,1,200,회전,30,2015-01,053-667-3900,35.8448362,128.5438097,2019-09-16
"대구광역시 달서구청",대구광역시 달서구 감삼남2길 78(감삼동),대구광역시 달서구 감삼동 288-5,생활방범,1,200,회전,30,2015-01,053-667-3900,35.84540833,128.540849,2019-09-16
"대구광역시 달서구청",대구광역시 달서구 죽전길 109(죽전동),대구광역시 달서구 죽전동 203-6,생활방범,1,200,회전,30,2015-01,053-667-3900,35.85662426,128.5401159,2019-09-16
"대구광역시 달서구청",대구광역시 달서구 죽전1길 110(죽전동),대구광역시 달서구 죽전동 216-9,생활방범,1,200,회전,30,2015-01,053-667-3900,35.85438719,128.5385042,2019-09-16
"대구광역시 달서구청",대구광역시 달서구 죽전1길 7(죽전동),대구광역시 달서구 죽전동 280-8,생활방범,1,200,회전,30,2015-01,053-667-3900,35.85211461,128.5407618,2019-09-16
"대구광역시 달서구청",대구광역시 달서구 당산로41길 14(감삼동),대구광역시 달서구 감삼동 30-20,생활방범,1,200,회전,30,2015-01,053-667-3900,35.85497018,128.5470809,2019-09-16
"대구광역시 달서구청",대구광역시 달서구 당산로41서길 30(감삼동),대구광역시 달서구 감삼동 53-1,생활방범,1,200,회전,30,2015-01,053-667-3900,35.8551403,128.5439151,2019-09-16
"대구광역시 달서구청",대구광역시 달서구 달구벌대로323길 33(감삼동),대구광역시 달서구 감삼동 44-6,생활방범,1,200,회전,30,2015-01,053-667-3900,35.85385838,128.5418254,2019-09-16
"대구광역시 달서구청",대구광역시 달서구 달구벌대로323길 16(감삼동),대구광역시 달서구 감삼동 47-5,생활방범,1,200,회전,30,2015-01,053-667-3900,35.85325146,128.5425066,2019-09-16
"대구광역시 달서구청",대구광역시 달서구 용산큰못2길 24(용산동),대구광역시 달서구 용산동 920,생활방범,1,200,회전,30,2015-01,053-667-3900,35.8602077,128.5271125,2019-09-16
"대구광역시 달서구청",대구광역시 달서구 성지로16길 61(용산동),대구광역시 달서구 용산동 491-1,생활방범,1,200,회전,30,2015-01,053-667-3900,35.85776468,128.522764,2019-09-16
"대구광역시 달서구청",대구광역시 달서구 와룡로41길 39(죽전동),대구광역시 달서구 죽전동 269-1,생활방범,1,200,고정,30,2012-01,053-667-3900,35.85124811,128.5349592,2019-09-16
"대구광역시 달서구청",대구광역시 달서구 와룡로53길 10-19(죽전동),대구광역시 달서구 죽전동 367-12,생활방범,1,200,회전,30,2015-01,053-667-3900,35.85771272,128.5365593,2019-09-16
"대구광역시 달서구청",대구광역시 달서구 와룡로45길 39(죽전동),대구광역시 달서구 죽전동 261-1,생활방범,1,200,회전,30,2015-01,053-667-3900,35.8530339,128.5349013,2019-09-16
"대구광역시 달서구청",대구광역시 달서구 죽전길 81(죽전동),대구광역시 달서구 죽전동 211-2,생활방범,1,200,회전,30,2015-01,053-667-3900,35.8554074,128.5401088,2019-09-16
"대구광역시 달서구청",대구광역시 달서구 와룡로43길 36-5(죽전동),대구광역시 달서구 죽전동 261-3,생활방범,1,200,회전,30,2015-01,053-667-3900,35.8523017,128.5349506,2019-09-16
"대구광역시 달서구청",대구광역시 달서구 달구벌대로307길 112(죽전동),대구광역시 달서구 죽전동 399-2,생활방범,1,200,회전,30,2015-01,053-667-3900,35.85503535,128.5346369,2019-09-16
"대구광역시 달서구청",대구광역시 달서구 감삼북길 79(죽전동),대구광역시 달서구 감삼동 128-17,생활방범,1,200,회전,30,2015-01,053-667-3900,35.85201736,128.544326,2019-09-16
"대구광역시 달서구청",대구광역시 달서구 달구벌대로332길 21(죽전동),대구광역시 달서구 감삼동 108-1,생활방범,1,200,회전,30,2015-01,053-667-3900,35.85296561,128.5478753,2019-09-16
"대구광역시 달서구청",대구광역시 달서구 달구벌대로332길 82(죽전동),대구광역시 달서구 감삼동 118-8,생활방범,1,200,회전,30,2015-01,053-667-3900,35.85047603,128.5463193,2019-09-16
"대구광역시 달서구청",대구광역시 달서구 감삼남길 149(감삼동),대구광역시 달서구 감삼동 124-38,생활방범,1,200,회전,30,2015-01,053-667-3900,35.8498102,128.5450304,2019-09-16
"대구광역시 달서구청",대구광역시 달서구 감삼남길 17(감삼동),대구광역시 달서구 감삼동 169-10,생활방범,1,200,회전,30,2015-01,053-667-3900,35.84750205,128.5382616,2019-09-16
"대구광역시 달서구청",대구광역시 달서구 감삼남2안길 11(감삼동),대구광역시 달서구 감삼동 177-6,생활방범,1,200,회전,30,2015-01,053-667-3900,35.84680974,128.5399142,2019-09-16
"대구광역시 달서구청",대구광역시 달서구 감삼남5길 36(감삼동),대구광역시 달서구 감삼동 200-25,생활방범,1,200,회전,30,2015-01,053-667-3900,35.8478013,128.5436218,2019-09-16
"대구광역시 달서구청",대구광역시 달서구 두류길 89(두류동),대구광역시 달서구 두류동 1236-5,생활방범,1,200,회전,30,2015-01,053-667-3900,35.85895684,128.5697085,2019-09-16
"대구광역시 달서구청",대구광역시 달서구 야외음악당로39서길 91(두류동),대구광역시 달서구 두류동 637-1,생활방범,1,200,회전,30,2015-01,053-667-3900,35.85161029,128.5525269,2019-09-16
"대구광역시 달서구청",대구광역시 달서구 달구벌대로344길 87(두류동),대구광역시 달서구 두류동 631-1,생활방범,1,200,회전,30,2015-01,053-667-3900,35.8531045,128.5509762,2019-09-16
"대구광역시 달서구청",대구광역시 달서구 대명천로12길 46(성당동),대구광역시 달서구 성당동 383-1,생활방범,1,200,회전,30,2015-01,053-667-3900,35.84032916,128.5537215,2019-09-16
"대구광역시 달서구청",대구광역시 달서구 야외음악당로11길 21(성당동),대구광역시 달서구 성당동 498-1,생활방범,1,200,회전,30,2015-01,053-667-3900,35.84150158,128.5516153,2019-09-16
"대구광역시 달서구청",대구광역시 달서구 선원로15안길 49(신당동),대구광역시 달서구 신당동 1677,생활방범,1,200,회전,30,2015-01,053-667-3900,35.85958523,128.4974129,2019-09-16
"대구광역시 달서구청",대구광역시 달서구 계대동문로4길 59(신당동),대구광역시 달서구 신당동 1834-6,생활방범,1,200,회전,30,2015-01,053-667-3900,35.85277544,128.4941782,2019-09-16
"대구광역시 달서구청",대구광역시 달서구 새방로6길 31(용산동),대구광역시 달서구 용산동 555-6,생활방범,1,200,회전,30,2015-01,053-667-3900,35.8610034,128.5236300,2019-09-16
"대구광역시 달서구청",대구광역시 달서구 성서로72길 85(이곡동),대구광역시 달서구 이곡동 1000-300,생활방범,1,200,회전,30,2015-01,053-667-3900,35.84949031,128.5123693,2019-09-16
"대구광역시 달서구청",대구광역시 달서구 선원로23북길 17(이곡동),대구광역시 달서구 이곡동 1312-16,생활방범,1,200,회전,30,2015-01,053-667-3900,35.86048446,128.5043574,2019-09-16
"대구광역시 달서구청",대구광역시 달서구 문화회관3길 49-17(장기동),대구광역시 달서구 장기동 284,생활방범,1,200,회전,30,2015-01,053-667-3900,35.8480228,128.5198482,2019-09-16
"대구광역시 달서구청",대구광역시 달서구 죽전1안길 52(죽전동),대구광역시 달서구 죽전동 212-12,생활방범,1,200,회전,30,2015-01,053-667-3900,35.85434616,128.5396022,2019-09-16
"대구광역시 달서구청",대구광역시 달서구 죽전1길 40(죽전동),대구광역시 달서구 죽전동 253-4,생활방범,1,200,회전,30,2015-01,053-667-3900,35.85189786,128.538856,2019-09-16
"대구광역시 달서구청",대구광역시 달서구 월배로83길 87(송현동),대구광역시 달서구 송현동 549-2,생활방범,1,200,회전,30,2015-01,053-667-3900,35.8319024,128.5471105,2019-09-16
"대구광역시 달서구청",대구광역시 달서구 월배로84길 105(송현동),대구광역시 달서구 송현동 1993-7,생활방범,1,200,회전,30,2015-01,053-667-3900,35.82859707,128.5569159,2019-09-16
"대구광역시 달서구청",대구광역시 달서구 월배로97길 16(송현동),대구광역시 달서구 송현동 1036-8,생활방범,1,200,회전,30,2015-01,053-667-3900,35.83661647,128.5555243,2019-09-16
"대구광역시 달서구청",대구광역시 달서구 월배로85길 13(송현동),대구광역시 달서구 송현동 183-63,생활방범,1,200,회전,30,2015-01,053-667-3900,35.8327032,128.5519195,2019-09-16
"대구광역시 달서구청",대구광역시 달서구 월배로74길 63(송현동),대구광역시 달서구 송현동 1974-7,생활방범,1,200,회전,30,2015-01,053-667-3900,35.82615028,128.5519737,2019-09-16
"대구광역시 달서구청",대구광역시 달서구 상원로1길 66(진천동),대구광역시 달서구 진천동 828-7,생활방범,1,200,회전,30,2015-01,053-667-3900,35.81043069,128.5321128,2019-09-16
"대구광역시 달서구청",대구광역시 달서구 월배로28안길 20(진천동),대구광역시 달서구 진천동 238-16,생활방범,1,200,회전,30,2015-01,053-667-3900,35.81459207,128.5287263,2019-09-16
"대구광역시 달서구청",대구광역시 달서구 화암로73길 8-10(대곡동),대구광역시 달서구 대곡동 1017-5,생활방범,1,200,회전,30,2015-01,053-667-3900,35.80668161,128.5197015,2019-09-16
"대구광역시 달서구청",대구광역시 달서구 월암로 95(대천동),대구광역시 달서구 대천동 1012,생활방범,1,200,회전,30,2015-01,053-667-3900,35.82463655,128.5133159,2019-09-16
"대구광역시 달서구청",대구광역시 달서구 상원로1길 18(상인동),대구광역시 달서구 상인동 1459-13,생활방범,1,200,회전,30,2015-01,053-667-3900,35.81053599,128.5347803,2019-09-16
"대구광역시 달서구청",대구광역시 달서구 상원로9길 29(상인동),대구광역시 달서구 상인동 370-15,생활방범,1,200,회전,30,2015-01,053-667-3900,35.8132151,128.5343004,2019-09-16
"대구광역시 달서구청",대구광역시 달서구 상화북로43길 5(상인동),대구광역시 달서구 상인동 1546,생활방범,1,200,회전,30,2015-01,053-667-3900,35.81504505,128.5482227,2019-09-16
"대구광역시 달서구청",대구광역시 달서구 달구벌대로309길 29(죽전동),대구광역시 달서구 죽전동 268-11,생활방범,1,200,회전,30,2016-01,053-667-3900,35.85086571,128.5358709,2019-09-16
"대구광역시 달서구청",대구광역시 달서구 와룡로58길 27(죽전동),대구광역시 달서구 죽전동 173-1,생활방범,1,200,회전,30,2016-01,053-667-3900,35.85804378,128.5391081,2019-09-16
"대구광역시 달서구청",대구광역시 달서구 와룡로52길 14(죽전동),대구광역시 달서구 죽전동 217-14,생활방범,1,200,회전,30,2016-01,053-667-3900,35.85520832,128.5382806,2019-09-16
"대구광역시 달서구청",대구광역시 달서구 와룡로49길 65(용산동),대구광역시 달서구 용산동 890-14,생활방범,1,200,회전,30,2016-01,053-667-3900,35.8543055,128.5335026,2019-09-16
"대구광역시 달서구청",대구광역시 달서구 장기로22안길 35-2,대구광역시 달서구 성당동 706-23,생활방범,1,200,회전,30,2015-01,053-667-3900,35.84554395,128.5467171,2019-09-16
"대구광역시 달서구청",대구광역시 달서구 장기로26길 81(성당동),대구광역시 달서구 성당동 698-14,생활방범,1,200,회전,30,2015-01,053-667-3900,35.8470705,128.5479675,2019-09-16
"대구광역시 달서구청",대구광역시 달서구 당산동길 89(성당동),대구광역시 달서구 성당동 675-43,생활방범,1,200,회전,30,2015-01,053-667-3900,35.84525088,128.5497041,2019-09-16
"대구광역시 달서구청",대구광역시 달서구 장산1길 108(용산동),대구광역시 달서구 용산동 927-5,생활방범,1,200,회전,30,2016-01,053-667-3900,35.85769006,128.5254185,2019-09-16
"대구광역시 달서구청",대구광역시 달서구 장산2길 42(용산동),대구광역시 달서구 용산동 939-5,생활방범,1,200,회전,30,2016-01,053-667-3900,35.85637377,128.5254785,2019-09-16
"대구광역시 달서구청",대구광역시 달서구 장산1길 62(용산동),대구광역시 달서구 용산동942,생활방범,1,200,회전,30,2016-01,053-667-3900,35.85570163,128.5246093,2019-09-16
"대구광역시 달서구청",대구광역시 달서구 호산동로35북길 34(호산동),대구광역시 달서구 호산동 352-19,생활방범,1,200,회전,30,2016-01,053-667-3900,35.8519663,128.4848512,2019-09-16
"대구광역시 달서구청",대구광역시 달서구 호산동로35길 50(호산동),대구광역시 달서구 호산동 370-11,생활방범,1,200,회전,30,2016-01,053-667-3900,35.85084753,128.4829118,2019-09-16
"대구광역시 달서구청",대구광역시 달서구 서당로9길 46-28(신당동),대구광역시 달서구 신당동 1714-19,생활방범,1,200,회전,30,2016-01,053-667-3900,35.85743047,128.4931664,2019-09-16
"대구광역시 달서구청",대구광역시 달서구 구마로42길 15(송현동),대구광역시 달서구 송현동 83-3,생활방범,1,200,회전,30,2015-01,053-667-3900,35.8362625,128.5509258,2019-09-16
"대구광역시 달서구청",대구광역시 달서구 구마로26안길 48(본동),대구광역시 달서구 본동 1069-11,생활방범,1,200,회전,30,2015-01,053-667-3900,35.83548491,128.5388001,2019-09-16
"대구광역시 달서구청",대구광역시 달서구 학산로7안길 66(본동),대구광역시 달서구 본동 610,생활방범,1,200,회전,30,2015-01,053-667-3900,35.83570528,128.5298026,2019-09-16
"대구광역시 달서구청",대구광역시 달서구 송현동길 16(송현동),대구광역시 달서구 송현동 185-30,생활방범,1,200,회전,30,2015-01,053-667-3900,35.83043161,128.5500111,2019-09-16
"대구광역시 달서구청",대구광역시 달서구 구마로12길 29(본동),대구광역시 달서구 본동 870,생활방범,1,200,회전,30,2015-01,053-667-3900,35.83595691,128.5340326,2019-09-16
"대구광역시 달서구청",대구광역시 달서구 중흥로9길 11(송현동),대구광역시 달서구 송현동 242,생활방범,1,200,회전,30,2015-01,053-667-3900,35.83070478,128.5572184,2019-09-16
"대구광역시 달서구청",대구광역시 달서구 송현로2길 71(송현동),대구광역시 달서구 송현동 1967-28,생활방범,1,200,회전,30,2015-01,053-667-3900,35.8234736,128.5527854,2019-09-16
"대구광역시 달서구청",대구광역시 달서구 상화북로 55(진천동),대구광역시 달서구 진천동 815-15,생활방범,1,200,회전,30,2015-01,053-667-3900,35.81205226,128.5323007,2019-09-16
"대구광역시 달서구청",대구광역시 달서구 상화북로 29(진천동),대구광역시 달서구 진천동 272-2,생활방범,1,200,회전,30,2015-01,053-667-3900,35.810978,128.5296935,2019-09-16
"대구광역시 달서구청",대구광역시 달서구 진천로3길 9(진천동),대구광역시 달서구 진천동 344,생활방범,1,200,회전,30,2015-01,053-667-3900,35.81027941,128.525539,2019-09-16
"대구광역시 달서구청",대구광역시 달서구 월배로 19-27(유천동),대구광역시 달서구 유천동 370-2,생활방범,1,200,회전,30,2015-01,053-667-3900,35.81231036,128.5165671,2019-09-16
"대구광역시 달서구청",대구광역시 달서구 비슬로540길 27(대곡동),대구광역시 달서구 대곡동 22-4,생활방범,1,200,회전,30,2015-01,053-667-3900,35.80756273,128.5118004,2019-09-16
"대구광역시 달서구청",대구광역시 달서구 조암로6길 33,,생활방범,1,200,회전,30,2015-01,053-667-3900,35.826957,128.5242064,2019-09-16
"대구광역시 달서구청",대구광역시 달서구 상인로5길 9(상인동),대구광역시 달서구 상인동 1580-1,생활방범,1,200,회전,30,2015-01,053-667-3900,35.80992705,128.5498472,2019-09-16
"대구광역시 달서구청",대구광역시 달서구 미리샘길 17-13(도원동),대구광역시 달서구 도원동 1447-9,생활방범,1,200,회전,30,2015-01,053-667-3900,35.80706921,128.5440516,2019-09-16
"대구광역시 달서구청",대구광역시 달서구 상화로51안길 28(상인동),대구광역시 달서구 상인동 1332-113,생활방범,1,200,회전,30,2015-01,053-667-3900,35.80970608,128.5409602,2019-09-16
"대구광역시 달서구청",대구광역시 달서구 상화로59길 23(상인동),대구광역시 달서구 상인동 1158,생활방범,1,200,회전,30,2015-01,053-667-3900,35.80934928,128.5461031,2019-09-16
"대구광역시 달서구청",대구광역시 달서구 월배로40길 69(상인동),대구광역시 달서구 상인동 276-1,생활방범,1,200,회전,30,2015-01,053-667-3900,35.8158081,128.5375269,2019-09-16
"대구광역시 달서구청",대구광역시 달서구 상인로26안길 28(상인동),대구광역시 달서구 상인동 1536-1,생활방범,1,200,회전,30,2015-01,053-667-3900,35.81661415,128.5461127,2019-09-16
"대구광역시 달서구청",대구광역시 달서구 월배로46길 30(상인동),대구광역시 달서구 상인동 246-17,생활방범,1,200,회전,30,2015-01,053-667-3900,35.81715997,128.5370044,2019-09-16
"대구광역시 달서구청",대구광역시 달서구 두류길 61(두류동),대구광역시 달서구 두류동 1212-12,생활방범,1,200,회전,30,2015-01,053-667-3900,35.8593367,128.5713148,2019-09-16
"대구광역시 달서구청",대구광역시 달서구 야외음악당로11길 49(성당동),대구광역시 달서구 성당동 568-8,생활방범,1,200,회전,30,2015-01,053-667-3900,35.84152658,128.5501145,2019-09-16
"대구광역시 달서구청",대구광역시 달서구 장기로17길 19(성당동),대구광역시 달서구 성당동 554-2,생활방범,1,200,회전,30,2015-01,053-667-3900,35.8424869,128.551009,2019-09-16
"대구광역시 달서구청",대구광역시 달서구 당산동2길 79(성당동),대구광역시 달서구 성당동 695-69,생활방범,1,200,회전,30,2015-01,053-667-3900,35.84834497,128.5471792,2019-09-16
"대구광역시 달서구청",대구광역시 달서구 본리서3길 49(본리동),대구광역시 달서구 본리동 1216-7,생활방범,1,200,회전,30,2015-01,053-667-3900,35.83766072,128.5299041,2019-09-16
"대구광역시 달서구청",대구광역시 달서구 선원로59길 17(용산동),대구광역시 달서구 용산동 592-10,생활방범,1,200,회전,30,2016-01,053-667-3900,35.85971538,128.5239505,2019-09-16
"대구광역시 달서구청",대구광역시 달서구 달구벌대로 1429-12(장기동),대구광역시 달서구 장기동 47,생활방범,1,200,회전,30,2016-01,053-667-3900,35.8503071,128.5241097,2019-09-16
"대구광역시 달서구청",대구광역시 달서구 대명천로 284(장기동),대구광역시 달서구 장기동 826-7,생활방범,1,200,회전,30,2016-01,053-667-3900,35.84196302,128.5292354,2019-09-16
"대구광역시 달서구청",대구광역시 달서구 선원로14길 43(신당동),대구광역시 달서구 신당동 1763-21,생활방범,1,200,회전,30,2016-01,053-667-3900,35.85703503,128.4994196,2019-09-16
"대구광역시 달서구청",대구광역시 달서구 호산동로35북길 60(호산동),대구광역시 달서구 호산동 352-9,생활방범,1,200,회전,30,2015-01,053-667-3900,35.85200799,128.4834565,2019-09-16
"대구광역시 달서구청",대구광역시 달서구 호산동로36길 45(호산동),대구광역시 달서구 호산동 357-46,생활방범,1,200,회전,30,2016-01,053-667-3900,35.85082546,128.4883427,2019-09-16
"대구광역시 달서구청",대구광역시 달서구 와룡로28길 19(감삼동),대구광역시 달서구 감삼동 286-23,생활방범,1,200,회전,30,2015-01,053-667-3900,35.84490556,128.5384101,2019-09-16
"대구광역시 달서구청",대구광역시 달서구 와룡로28길 52(감삼동),대구광역시 달서구 감삼동 315-9,생활방범,1,200,회전,30,2015-01,053-667-3900,35.84472659,128.5401248,2019-09-16
"대구광역시 달서구청",대구광역시 달서구 구마로11길 61(본리동),대구광역시 달서구 본리동 430-1,생활방범,1,200,회전,30,2015-01,053-667-3900,35.84023948,128.5337514,2019-09-16
"대구광역시 달서구청",대구광역시 달서구 대명천로51길 59(본리동),대구광역시 달서구 본리동 648-5,생활방범,1,200,회전,30,2015-01,053-667-3900,35.8391056,128.533522,2019-09-16
"대구광역시 달서구청",대구광역시 달서구 대명천로 222-7(장기동),대구광역시 달서구 장기동 548-14,생활방범,1,200,회전,30,2015-01,053-667-3900,35.84240955,128.5358245,2019-09-16
"대구광역시 달서구청",대구광역시 달서구 와룡로49길 31(죽전동),대구광역시 달서구 죽전동 69,생활방범,1,200,회전,30,2015-01,053-667-3900,35.85422983,128.5353843,2019-09-16
"대구광역시 달서구청",대구광역시 달서구 월곡로43길 34(상인동),대구광역시 달서구 상인동 540-10,생활방범,1,200,회전,30,2015-01,053-667-3900,35.8132408,128.5406302,2019-09-16
"대구광역시 달서구청",대구광역시 달서구 상인로9안길 10(상인동),대구광역시 달서구 상인동 1570-4,생활방범,1,200,회전,30,2015-01,053-667-3900,35.81034216,128.5477698,2019-09-16
"대구광역시 달서구청",대구광역시 달서구 월곡로26안길 52(상인동),대구광역시 달서구 상인동 1578,생활방범,1,200,회전,30,2015-01,053-667-3900,35.8105686,128.5495303,2019-09-16
"대구광역시 달서구청",대구광역시 달서구 상화로 372(상인동),대구광역시 달서구 상인동 1592-2,생활방범,1,200,회전,30,2016-01,053-667-3900,35.8074352,128.5546654,2019-09-16
"대구광역시 달서구청",대구광역시 달서구 학산로7안길 26(본동),대구광역시 달서구 본동 614-15,생활방범,1,200,회전,30,2015-01,053-667-3900,35.83401964,128.5298356,2019-09-16
"대구광역시 달서구청",대구광역시 달서구 앞산순환로39길 50(송현동),대구광역시 달서구 송현동 1955-2,생활방범,1,200,회전,30,2015-01,053-667-3900,35.8227259,128.549847,2019-09-16
"대구광역시 달서구청",대구광역시 달서구 송현로8길 74(송현동),대구광역시 달서구 송현동 1962-1,생활방범,1,200,회전,30,2017-01,053-667-3900,35.82474954,128.5508129,2019-09-16
"대구광역시 달서구청",대구광역시 달서구 학산로2길 24,,생활방범,1,200,회전,30,2015-01,053-667-3900,35.8250348,128.5321269,2019-09-16
"대구광역시 달서구청",대구광역시 달서구 조암남로20길 17(월성동),대구광역시 달서구 대천동 526-6,생활방범,1,200,회전,30,2015-01,053-667-3900,35.82034563,128.5218313,2019-09-16
"대구광역시 달서구청",대구광역시 달서구 상화북로 26-3,,생활방범,1,200,회전,30,2015-01,053-667-3900,35.811719,128.5410078,2019-09-16
"대구광역시 달서구청",대구광역시 달서구 상화로7길 34(진천동),대구광역시 달서구 진천동 715,생활방범,1,200,회전,30,2016-01,053-667-3900,35.80910513,128.5199212,2019-09-16
"대구광역시 달서구청",대구광역시 달서구 진천로16길 72(진천동),대구광역시 달서구 진천동 79-10,생활방범,1,200,회전,30,2016-01,053-667-3900,35.81642724,128.5274277,2019-09-16
"대구광역시 달서구청",대구광역시 달서구 달구벌대로 1744-12(두류동),대구광역시 달서구 두류동 471-9,생활방범,1,200,회전,30,2015-01,053-667-3900,35.85664055,128.5563524,2019-09-16
"대구광역시 달서구청",대구광역시 달서구 성당로33길 98(성당동),대구광역시 달서구 성당동 60-1,생활방범,1,200,회전,30,2016-01,053-667-3900,35.85227761,128.5697805,2019-09-16
"대구광역시 달서구청",대구광역시 달서구 성서동로61길 5(이곡동),대구광역시 달서구 장기동 180-61,생활방범,1,200,회전,30,2016-01,053-667-3900,35.8475375,128.5151234,2019-09-16
"대구광역시 달서구청",대구광역시 달서구 달구벌대로 1388-19,,생활방범,1,200,회전,30,2016-01,053-667-3900,35.8496075,128.5198098,2019-09-16
"대구광역시 달서구청",대구광역시 달서구 선원로5길 14(신당동),대구광역시 달서구 신당동 1663,생활방범,1,200,회전,30,2016-01,053-667-3900,35.85997203,128.4953967,2019-09-16
"대구광역시 달서구청",대구광역시 달서구 달구벌대로243길 40(이곡동),대구광역시 달서구 이곡동 1210-3,생활방범,1,200,회전,30,2016-01,053-667-3900,35.85295792,128.5023168,2019-09-16
"대구광역시 달서구청",대구광역시 달서구 감삼1길 32(감삼동),대구광역시 달서구 감삼동 169-17,생활방범,1,200,회전,30,2015-01,053-667-3900,35.84846634,128.5382903,2019-09-16
"대구광역시 달서구청",대구광역시 달서구 와룡로17길 23(본리동),대구광역시 달서구 본리동 390,생활방범,1,200,회전,30,2015-01,053-667-3900,35.84032215,128.5354235,2019-09-16
"대구광역시 달서구청",대구광역시 달서구 상화로51안길 31-12(상인동),대구광역시 달서구 상인동 1332-35,생활방범,1,200,회전,30,2016-01,053-667-3900,35.81006069,128.5403237,2019-09-16
"대구광역시 달서구청",대구광역시 달서구 상인로18길 53(상인동),대구광역시 달서구 상인동 1542-10,생활방범,1,200,회전,30,2016-01,053-667-3900,35.81645681,128.5489517,2019-09-16
"대구광역시 달서구청",대구광역시 달서구 구마로46길 56(송현동),대구광역시 달서구 송현동 122-4,생활방범,1,200,회전,30,2015-01,053-667-3900,35.83448442,128.5526624,2019-09-16
"대구광역시 달서구청",대구광역시 달서구 월배로83길 13(송현동),대구광역시 달서구 송현동 184-53,생활방범,1,200,회전,30,2015-01,053-667-3900,35.83162582,128.5510045,2019-09-16
"대구광역시 달서구청",대구광역시 달서구 송현로16길 93(송현동),대구광역시 달서구 송현동 1907-4,생활방범,1,200,회전,30,2015-01,053-667-3900,35.8281022,128.545922,2019-09-16
"대구광역시 달서구청",대구광역시 달서구 진천로4길 66(진천동),대구광역시 달서구 진천동 194-1,생활방범,1,200,회전,30,2016-01,053-667-3900,35.81171339,128.5294435,2019-09-16
"대구광역시 달서구청",대구광역시 달서구 월성로 74-1(월성동),대구광역시 달서구 월성동 84-4,생활방범,1,200,회전,30,2016-01,053-667-3900,35.83122922,128.5269503,2019-09-16
"대구광역시 달서구청",대구광역시 달서구 월배로93길 15(송현동),대구광역시 달서구 송현동 136-5,생활방범,1,200,회전,30,2015-01,053-667-3900,35.83480946,128.554491,2019-09-16
"대구광역시 달서구청",대구광역시 달서구 월배로68안길 43-16(송현동),대구광역시 달서구 송현동 798-42,생활방범,1,200,회전,30,2015-01,053-667-3900,35.82687542,128.5491232,2019-09-16
"대구광역시 달서구청",대구광역시 달서구 구마로10길 26(본동),대구광역시 달서구 본동 707,생활방범,1,200,회전,30,2015-01,053-667-3900,35.83592981,128.5320178,2019-09-16
"대구광역시 달서구청",대구광역시 달서구 상인서로10길 40(상인동),대구광역시 달서구 상인동 1541-7,생활방범,1,200,회전,30,2016-01,053-667-3900,35.81635255,128.5481293,2019-09-16
"대구광역시 달서구청",대구광역시 달서구 미리샘길 55(도원동),대구광역시 달서구 도원동 1450-10,생활방범,1,200,회전,30,2016-01,053-667-3900,35.80711877,128.5450477,2019-09-16
"대구광역시 달서구청",대구광역시 달서구 월배로24길 46(진천동),대구광역시 달서구 진천동 255-8,생활방범,1,200,회전,30,2016-01,053-667-3900,35.81271097,128.5280559,2019-09-16
"대구광역시 달서구청",대구광역시 달서구 진천로7길 42(진천동),대구광역시 달서구 진천동 479-24,생활방범,1,200,회전,30,2016-01,053-667-3900,35.8113037,128.5231641,2019-09-16
"대구광역시 달서구청",대구광역시 달서구 대명천로6길 19(성당동),대구광역시 달서구 성당동 201-8,생활방범,1,200,회전,30,2016-01,053-667-3900,35.84005455,128.5565755,2019-09-16
"대구광역시 달서구청",대구광역시 달서구 대명천로10길 37(성당동),대구광역시 달서구 성당동 385-10,생활방범,1,200,회전,30,2015-01,053-667-3900,35.8399181,128.5549031,2019-09-16
"대구광역시 달서구청",대구광역시 달서구 성서로72길 9(이곡동),대구광역시 달서구 이곡동 1000-75,생활방범,1,200,회전,30,2016-01,053-667-3900,35.8495062,128.5080739,2019-09-16
"대구광역시 달서구청",대구광역시 달서구 성서로72길 135(이곡동),대구광역시 달서구 이곡동 1289,생활방범,1,200,회전,30,2016-01,053-667-3900,35.8496504,128.514972,2019-09-16
"대구광역시 달서구청",대구광역시 달서구 선원로23길 117(이곡동),대구광역시 달서구 이곡동 1173-11,생활방범,1,200,회전,30,2016-01,053-667-3900,35.86147516,128.5023928,2019-09-16
"대구광역시 달서구청",대구광역시 달서구 선원로10길 26(신당동),대구광역시 달서구 신당동 160,생활방범,1,200,회전,30,2016-01,053-667-3900,35.85807021,128.4976336,2019-09-16
"대구광역시 달서구청",대구광역시 달서구 성당로53길 11(두류동),대구광역시 달서구 두류동 777-58,생활방범,1,200,회전,30,2015-01,053-667-3900,35.85628007,128.5734407,2019-09-16
"대구광역시 달서구청",대구광역시 달서구 파도고개로1안길 13(성당동),대구광역시 달서구 성당동 56-35,생활방범,1,200,회전,30,2015-01,053-667-3900,35.85162794,128.571824,2019-09-16
"대구광역시 달서구청",대구광역시 달서구 월배로39길 46(상인동),대구광역시 달서구 상인동 123-1,어린이보호,1,200,고정,30,2010-01,053-667-3900,35.8214914,128.5317856,2019-09-16
"대구광역시 달서구청",대구광역시 달서구 월배로39길 46,,어린이보호,1,200,고정,30,2010-01,053-667-3900,35.8214914,128.5317856,2019-09-16
"대구광역시 달서구청",대구광역시 달서구 상인로9길 20(상인동),대구광역시 달서구 상인동 1565-10,어린이보호,1,200,고정,30,2010-01,053-667-3900,35.8111352,128.5478246,2019-09-16
"대구광역시 달서구청",대구광역시 달서구 도원남로 18(도원동),대구광역시 달서구 도원동 1440-3,어린이보호,1,200,고정,30,2010-01,053-667-3900,35.80571999,128.5313732,2019-09-16
"대구광역시 달서구청",대구광역시 달서구 도원남로 19,,어린이보호,1,200,고정,30,2010-01,053-667-3900,35.8059641,128.532419,2019-09-16
"대구광역시 달서구청",대구광역시 달서구 월곡로45길 38(상인동),대구광역시 달서구 상인동 1419-2,어린이보호,1,200,고정,30,2010-01,053-667-3900,35.8139059,128.5394284,2019-09-16
"대구광역시 달서구청",대구광역시 달서구 월곡로43길 27(상인동),대구광역시 달서구 상인동 1474-2,어린이보호,1,200,고정,30,2010-01,053-667-3900,35.81322033,128.5412094,2019-09-16
"대구광역시 달서구청",대구광역시 달서구 월곡로20길 15-16,,어린이보호,1,200,고정,30,2010-01,053-667-3900,35.8067269,128.5513715,2019-09-16
"대구광역시 달서구청",대구광역시 달서구 월배로68길 74(송현동),대구광역시 달서구 송현동 1955,어린이보호,1,200,고정,30,2010-01,053-667-3900,35.82344407,128.5505176,2019-09-16
"대구광역시 달서구청",대구광역시 달서구 앞산순환로45길 23(송현동),대구광역시 달서구 송현동 1967,어린이보호,1,200,고정,30,2010-01,053-667-3900,35.82421808,128.5527018,2019-09-16
"대구광역시 달서구청",대구광역시 달서구 송현로 114(송현동),대구광역시 달서구 송현동 1909,어린이보호,1,200,고정,30,2010-01,053-667-3900,35.8275028,128.544147,2019-09-16
"대구광역시 달서구청",대구광역시 달서구 월배로69길 26(송현동),대구광역시 달서구 송현동 1922-22,어린이보호,1,200,회전,30,2019-01,053-667-3900,35.82725699,128.5465154,2019-09-16
"대구광역시 달서구청",대구광역시 달서구 조암로14안길 29(월성동),대구광역시 달서구 월성동 1434,어린이보호,1,200,고정,30,2010-01,053-667-3900,35.82402552,128.5212361,2019-09-16
"대구광역시 달서구청",대구광역시 달서구 월곡로94길 10(월성동),대구광역시 달서구 월성동 82,어린이보호,1,200,고정,30,2010-01,053-667-3900,35.8314484,128.5258276,2019-09-16
"대구광역시 달서구청",대구광역시 달서구 상화로 88-11(진천동),대구광역시 달서구 대곡동 1031-1,어린이보호,1,200,고정,30,2010-01,053-667-3900,35.80642874,128.5239313,2019-09-16
"대구광역시 달서구청",대구광역시 달서구 상화로 88-11(진천동),대구광역시 달서구 대곡동 1031-1,어린이보호,1,200,고정,30,2010-01,053-667-3900,35.80642874,128.5239313,2019-09-16
"대구광역시 달서구청",대구광역시 달서구 진천로16길 68-11(진천동),대구광역시 달서구 진천동 79-31,어린이보호,1,200,고정,30,2010-01,053-667-3900,35.8161377,128.5277031,2019-09-16
"대구광역시 달서구청",대구광역시 달서구 월배로 149-11,,어린이보호,1,200,고정,30,2010-01,053-667-3900,35.8171308,128.5295422,2019-09-16
"대구광역시 달서구청",대구광역시 달서구 달서대로 27(유천동),대구광역시 달서구 유천동 333,어린이보호,1,200,고정,30,2010-01,053-667-3900,35.81200047,128.5131679,2019-09-16
"대구광역시 달서구청",대구광역시 달서구 조암로5길 14(월성동),대구광역시 달서구 월성동 591-3,어린이보호,1,200,고정,30,2010-01,053-667-3900,35.82382551,128.5278088,2019-09-16
"대구광역시 달서구청",대구광역시 달서구 상화북로 22,,어린이보호,1,200,고정,30,2010-01,053-667-3900,35.8103749,128.5292307,2019-09-16
"대구광역시 달서구청",대구광역시 달서구 진천로10길 71(진천동),대구광역시 달서구 진천동 253-24,어린이보호,1,200,고정,30,2010-01,053-667-3900,35.81106601,128.527038,2019-09-16
"대구광역시 달서구청",대구광역시 달서구 상화로9길 50(진천동),대구광역시 달서구 진천동 692-11,어린이보호,1,200,고정,30,2010-01,053-667-3900,35.81032123,128.5201136,2019-09-16
"대구광역시 달서구청",대구광역시 달서구 진천로3길 119(진천동),대구광역시 달서구 진천동770-4,어린이보호,1,200,고정,30,2010-01,053-667-3900,35.81013373,128.5196734,2019-09-16
"대구광역시 달서구청",대구광역시 달서구 달구벌대로301길 134(용산동),대구광역시 달서구 용산동 869-4,어린이보호,1,200,고정,30,2010-01,053-667-3900,35.8557332,128.5317519,2019-09-16
"대구광역시 달서구청",대구광역시 달서구 와룡로45길 70(용산동),대구광역시 달서구 용산동 890-7,어린이보호,1,200,고정,30,2010-01,053-667-3900,35.85327477,128.5332854,2019-09-16
"대구광역시 달서구청",대구광역시 달서구 와룡로56길 16(죽전동),대구광역시 달서구 죽전동 202-1,어린이보호,1,200,고정,30,2010-01,053-667-3900,35.85664054,128.5385128,2019-09-16
"대구광역시 달서구청",대구광역시 달서구 서당로3길 14(신당동),대구광역시 달서구 신당동 1842-12,어린이보호,1,200,고정,30,2010-01,053-667-3900,35.85332314,128.4947100,2019-09-16
"대구광역시 달서구청",대구광역시 달서구 서당로3(신당동),대구광역시 달서구 신당동 1833-5,어린이보호,1,200,고정,30,2010-01,053-667-3900,35.852001,128.4953579,2019-09-16
"대구광역시 달서구청",대구광역시 달서구 서당로 78(신당동),대구광역시 달서구 신당동 1745-7,어린이보호,1,200,고정,30,2010-01,053-667-3900,35.85868948,128.4960419,2019-09-16
"대구광역시 달서구청",대구광역시 달서구 서당로 47(신당동),대구광역시 달서구 신당동 1723-8,어린이보호,1,200,고정,30,2010-01,053-667-3900,35.85602404,128.4954385,2019-09-16
"대구광역시 달서구청",대구광역시 달서구 호산동로35길 26(호산동),대구광역시 달서구 호산동 366-7,어린이보호,1,200,고정,30,2010-01,053-667-3900,35.85085087,128.484302,2019-09-16
"대구광역시 달서구청",대구광역시 달서구 달서대로109안길 74(호산동),대구광역시 달서구 호산동 390,어린이보호,1,200,고정,30,2010-01,053-667-3900,35.84995724,128.4824115,2019-09-16
"대구광역시 달서구청",대구광역시 달서구 명덕로 30(두류동),,어린이보호,1,200,고정,30,2010-01,053-667-3900,35.860004,128.5741098,2019-09-16
"대구광역시 달서구청",대구광역시 달서구 명덕로2길 10(두류동),대구광역시 달서구 두류동 1227-22,어린이보호,1,200,고정,30,2010-01,053-667-3900,35.86142533,128.5718281,2019-09-16
"대구광역시 달서구청",대구광역시 달서구 두류남3길 78(두류동),대구광역시 달서구 두류동 1168-22,어린이보호,1,200,고정,30,2010-01,053-667-3900,35.85409548,128.5722625,2019-09-16
"대구광역시 달서구청",대구광역시 달서구 파도고개로 61(두류동),대구광역시 달서구 두류동 1335-22,어린이보호,1,200,고정,30,2010-01,053-667-3900,35.8533063,128.571061,2019-09-16
"대구광역시 달서구청",대구광역시 달서구 두류공원로49길 9(두류동),대구광역시 달서구 두류동 475-15,어린이보호,1,200,고정,30,2010-01,053-667-3900,35.8555734,128.5583657,2019-09-16
"대구광역시 달서구청",대구광역시 달서구 두류공원로49길 55(두류동),대구광역시 달서구 두류동 484-4,어린이보호,1,200,고정,30,2010-01,053-667-3900,35.85440498,128.5563171,2019-09-16
"대구광역시 달서구청",대구광역시 달서구 와룡로17길 35(본리동),대구광역시 달서구 본리동 413-1,어린이보호,1,200,고정,30,2010-01,053-667-3900,35.8403551,128.5348477,2019-09-16
"대구광역시 달서구청",대구광역시 달서구 와룡로13길 26-1,,어린이보호,1,200,고정,30,2010-01,053-667-3900,35.8383841,128.5350265,2019-09-16
"대구광역시 달서구청",대구광역시 달서구 당산로24길 104(성당동),대구광역시 달서구 성당동 678-5,어린이보호,1,200,고정,30,2010-01,053-667-3900,35.8461474,128.5507509,2019-09-16
"대구광역시 달서구청",대구광역시 달서구 야외음악당로15길 53(성당동),대구광역시 달서구 성당동 662-9,어린이보호,1,200,고정,30,2010-01,053-667-3900,35.8440081,128.5495018,2019-09-16
"대구광역시 달서구청",대구광역시 달서구 선원로33길 106(이곡동),대구광역시 달서구 이곡동 1345-11,어린이보호,1,200,고정,30,2010-01,053-667-3900,35.86104626,128.5142598,2019-09-16
"대구광역시 달서구청",대구광역시 달서구 선원로33길 106(이곡동),대구광역시 달서구 이곡동 1345-11,어린이보호,1,200,고정,30,2010-01,053-667-3900,35.86104626,128.5142598,2019-09-16
"대구광역시 달서구청",대구광역시 달서구 선원남로 173(용산동),대구광역시 달서구 용산동 419-4,어린이보호,1,200,고정,30,2010-01,053-667-3900,35.85789855,128.5188618,2019-09-16
"대구광역시 달서구청",대구광역시 달서구 선원남로 129(이곡동),대구광역시 달서구 이곡동 1306-8,어린이보호,1,200,고정,30,2010-01,053-667-3900,35.85741306,128.5144577,2019-09-16
"대구광역시 달서구청",대구광역시 달서구 달구벌대로260길 8(이곡동),대구광역시 달서구 이곡동 661-17,생활방범,1,200,고정,30,2011-01,053-667-3900,35.85084835,128.5088354,2019-09-16
"대구광역시 달서구청",대구광역시 달서구 성서로76길 7(이곡동),대구광역시 달서구 이곡동 1000-49,생활방범,1,200,고정,30,2011-01,053-667-3900,35.85069015,128.5079013,2019-09-16
"대구광역시 달서구청",대구광역시 달서구 달구벌대로264길 6(이곡동),대구광역시 달서구 이곡동 751,생활방범,1,200,고정,30,2011-01,053-667-3900,35.85052182,128.511435,2019-09-16
"대구광역시 달서구청",대구광역시 달서구 달구벌대로203길 8(호산동),대구광역시 달서구 호산동 108-7,생활방범,1,200,고정,30,2011-01,053-667-3900,35.853674,128.4784239,2019-09-16
"대구광역시 달서구청",대구광역시 달서구 계대동문로3안길 52(신당동),대구광역시 달서구 신당동 1700-10,생활방범,1,200,고정,30,2011-01,053-667-3900,35.85762234,128.4925365,2019-09-16
"대구광역시 달서구청",대구광역시 달서구 서당로9길 54(신당동),대구광역시 달서구 신당동 1710-10,생활방범,1,200,고정,30,2011-01,053-667-3900,35.85632446,128.4925285,2019-09-16
"대구광역시 달서구청",대구광역시 달서구 호산로29길 29(파호동),대구광역시 달서구 파호동 83-13,생활방범,1,200,고정,30,2011-01,053-667-3900,35.85261466,128.4760092,2019-09-16
"대구광역시 달서구청",대구광역시 달서구 장기로 277,,생활방범,1,200,고정,30,2011-01,053-667-3900,35.8433981,128.5299636,2019-09-16
"대구광역시 달서구청",대구광역시 달서구 선원로59길 57(용산동),대구광역시 달서구 용산동 559-12,생활방범,1,200,회전,30,2016-01,053-667-3900,35.86147951,128.5245157,2019-09-16
"대구광역시 달서구청",대구광역시 달서구 달서대로 39,,어린이보호,1,200,고정,30,2011-01,053-667-3900,35.8123162,128.5119967,2019-09-16
"대구광역시 달서구청",대구광역시 달서구 달서대로 39,,어린이보호,1,200,고정,30,2011-01,053-667-3900,35.8123162,128.5119967,2019-09-16
"대구광역시 달서구청",대구광역시 달서구 월성로 74(월성동),대구광역시 달서구 월성동 84-5,어린이보호,1,200,고정,30,2011-01,053-667-3900,35.83099396,128.527262,2019-09-16
"대구광역시 달서구청",대구광역시 달서구 월배로73길 62(송현동),대구광역시 달서구 송현동 1901-34,어린이보호,1,200,고정,30,2011-01,053-667-3900,35.82901861,128.5456073,2019-09-16
"대구광역시 달서구청",대구광역시 달서구 월곡로 106(상인동),대구광역시 달서구 상인동 1587-5,어린이보호,1,200,고정,30,2011-01,053-667-3900,35.80708707,128.5500157,2019-09-16
"대구광역시 달서구청",대구광역시 달서구 상화북로5길 26(진천동),대구광역시 달서구 진천동 264-1,어린이보호,1,200,고정,30,2011-01,053-667-3900,35.8115913,128.5285132,2019-09-16
"대구광역시 달서구청",대구광역시 달서구 월배로 129(진천동),대구광역시 달서구 진천동 101-5,어린이보호,1,200,고정,30,2011-01,053-667-3900,35.81557655,128.5282077,2019-09-16
"대구광역시 달서구청",대구광역시 달서구 학산로 16(월성동),대구광역시 달서구 월성동 500-10,어린이보호,1,200,고정,30,2011-01,053-667-3900,35.82692745,128.5316007,2019-09-16
"대구광역시 달서구청",대구광역시 달서구 월배로74길 82(송현동),대구광역시 달서구 송현동 1964-17,어린이보호,1,200,고정,30,2011-01,053-667-3900,35.8255036,128.5526553,2019-09-16
"대구광역시 달서구청",대구광역시 달서구 월배로68길 114(송현동),대구광역시 달서구 송현동 1958,어린이보호,1,200,고정,30,2011-01,053-667-3900,35.8224807,128.5522249,2019-09-16
"대구광역시 달서구청",대구광역시 달서구 구마로12길 57(본동),대구광역시 달서구 본동 938,어린이보호,1,200,고정,30,2011-01,053-667-3900,35.83458697,128.5340123,2019-09-16
"대구광역시 달서구청",대구광역시 달서구 구마로36길 20(본동),대구광역시 달서구 본동 247,어린이보호,1,200,회전,30,2019-01,053-667-3900,35.8361662,128.5456012,2019-09-16
"대구광역시 달서구청",대구광역시 달서구 한실로 43(도원동),대구광역시 달서구 도원동 1428-3,어린이보호,1,200,고정,30,2011-01,053-667-3900,35.80816336,128.5312014,2019-09-16
"대구광역시 달서구청",대구광역시 달서구 도원남로 60(도원동),대구광역시 달서구 도원동 1458,어린이보호,1,200,고정,30,2011-01,053-667-3900,35.80315875,128.5357486,2019-09-16
"대구광역시 달서구청",대구광역시 달서구 송현로 10(송현동),대구광역시 달서구 송현동 1950-21,어린이보호,1,200,회전,30,2019-01,053-667-3900,35.82085718,128.5505093,2019-09-16
"대구광역시 달서구청",대구광역시 달서구 도원남로 100-30(도원동),대구광역시 달서구 도원동 1455,어린이보호,1,200,고정,30,2011-01,053-667-3900,35.8048483,128.5422966,2019-09-16
"대구광역시 달서구청",대구광역시 달서구 조암남로 100(월성동),대구광역시 달서구 월성동 1351,어린이보호,1,200,고정,30,2011-01,053-667-3900,35.8204121,128.5228553,2019-09-16
"대구광역시 달서구청",대구광역시 달서구 월성로 42(월성동),대구광역시 달서구 월성동 273-4,어린이보호,1,200,고정,30,2011-01,053-667-3900,35.83161796,128.5308006,2019-09-16
"대구광역시 달서구청",대구광역시 달서구 조암로6길 55(월성동),대구광역시 달서구 월성동 755,어린이보호,1,200,고정,30,2011-01,053-667-3900,35.8282397,128.5217047,2019-09-16
"대구광역시 달서구청",대구광역시 달서구 조암로6길 60(월성동),대구광역시 달서구 월성동 717-3,어린이보호,1,200,고정,30,2011-01,053-667-3900,35.82895046,128.5224637,2019-09-16
"대구광역시 달서구청",대구광역시 달서구 상인서로 60(상인동),대구광역시 달서구 상인동 1519,어린이보호,1,200,고정,30,2011-01,053-667-3900,35.81635648,128.543319,2019-09-16
"대구광역시 달서구청",대구광역시 달서구 송현로 82(송현동),대구광역시 달서구 송현동1912-26,어린이보호,1,200,고정,30,2011-01,053-667-3900,35.8247345,128.5442388,2019-09-16
"대구광역시 달서구청",대구광역시 달서구 송현로 112-1(송현동),대구광역시 달서구 송현동 1909-9,어린이보호,1,200,고정,30,2011-01,053-667-3900,35.82737587,128.5441351,2019-09-16
"대구광역시 달서구청",대구광역시 달서구 야외음악당로15길 1(성당동),대구광역시 달서구 성당동 654-9,어린이보호,1,200,고정,30,2011-01,053-667-3900,35.84412069,128.5524306,2019-09-16
"대구광역시 달서구청",대구광역시 달서구 장기로16길 40(성당동),대구광역시 달서구 성당동 671-17,어린이보호,1,200,고정,30,2011-01,053-667-3900,35.84526102,128.5514311,2019-09-16
"대구광역시 달서구청",대구광역시 달서구 장기로88-2(성당동),대구광역시 달서구 성당동 657-2,어린이보호,1,200,고정,30,2011-01,053-667-3900,35.84368558,128.5510106,2019-09-16
"대구광역시 달서구청",대구광역시 달서구 서당로 14,,어린이보호,1,200,고정,30,2011-01,053-667-3900,35.8533103,128.4963241,2019-09-16
"대구광역시 달서구청",대구광역시 달서구 서당로 71(신당동),대구광역시 달서구 신당동 1734,어린이보호,1,200,고정,30,2011-01,053-667-3900,35.85814133,128.4956399,2019-09-16
"대구광역시 달서구청",대구광역시 달서구 선원로 20(신당동),대구광역시 달서구 신당동 1737,어린이보호,1,200,고정,30,2011-01,053-667-3900,35.85901189,128.494361,2019-09-16
"대구광역시 달서구청",대구광역시 달서구 서당로 70(신당동),대구광역시 달서구 신당동 519,어린이보호,1,200,고정,30,2011-01,053-667-3900,35.85800444,128.4961254,2019-09-16
"대구광역시 달서구청",대구광역시 달서구 서당로12길 50(신당동),대구광역시 달서구 신당동 525,어린이보호,1,200,고정,30,2011-01,053-667-3900,35.85761578,128.496312,2019-09-16
"대구광역시 달서구청",대구광역시 달서구 서당로12길 6(신당동),대구광역시 달서구 신당동 1782,어린이보호,1,200,고정,30,2011-01,053-667-3900,35.85646344,128.4959837,2019-09-16
"대구광역시 달서구청",대구광역시 달서구 당산로 122(감삼동),대구광역시 달서구 성당동 695-85,어린이보호,1,200,고정,30,2011-01,053-667-3900,35.84802581,128.5460146,2019-09-16
"대구광역시 달서구청",대구광역시 달서구 장기로 193(본리동),,어린이보호,1,200,고정,30,2011-01,053-667-3900,35.84335114,128.5393294,2019-09-16
"대구광역시 달서구청",대구광역시 달서구 대명천로 118(본리동),대구광역시 달서구 본리동 166-1,어린이보호,1,200,고정,30,2011-01,053-667-3900,35.8407442,128.547334,2019-09-16
"대구광역시 달서구청",대구광역시 달서구 달구벌대로 1337(이곡동),대구광역시 달서구 이곡동 734-12,어린이보호,1,200,고정,30,2011-01,053-667-3900,35.85117931,128.5136534,2019-09-16
"대구광역시 달서구청",대구광역시 달서구 새동네로 27(용산동),대구광역시 달서구 용산동 412-4,어린이보호,1,200,고정,30,2011-01,053-667-3900,35.85309465,128.5186741,2019-09-16
"대구광역시 달서구청",대구광역시 달서구 선원남로 22(이곡동),대구광역시 달서구 이곡동 1191-1,어린이보호,1,200,고정,30,2011-01,053-667-3900,35.85706992,128.5018556,2019-09-16
"대구광역시 달서구청",대구광역시 달서구 용산로 260(용산동),대구광역시 달서구 용산동 913,어린이보호,1,200,고정,30,2011-01,053-667-3900,35.86097211,128.5312555,2019-09-16
"대구광역시 달서구청",대구광역시 달서구 선원남로 120(이곡동),대구광역시 달서구 이곡동 1304-4,어린이보호,1,200,고정,30,2011-01,053-667-3900,35.85684832,128.5136512,2019-09-16
"대구광역시 달서구청",대구광역시 달서구 장기로 280(장기동),대구광역시 달서구 장기동 813-3,어린이보호,1,200,고정,30,2011-01,053-667-3900,35.84443342,128.5290637,2019-09-16
"대구광역시 달서구청",대구광역시 달서구 와룡로31길 37(장기동),대구광역시 달서구 장기동 511,어린이보호,1,200,고정,30,2011-01,053-667-3900,35.84640015,128.532719,2019-09-16
"대구광역시 달서구청",대구광역시 달서구 장산로 30(용산동),대구광역시 달서구 용산동 957,어린이보호,1,200,고정,30,2011-01,053-667-3900,35.85476479,128.5265307,2019-09-16
"대구광역시 달서구청",대구광역시 달서구 달구벌대로 1429-3(장기동),대구광역시 달서구 장기동 361-9,어린이보호,1,200,고정,30,2011-01,053-667-3900,35.84975763,128.5235084,2019-09-16
"대구광역시 달서구청",대구광역시 달서구 달서대로109길 116,,어린이보호,1,200,고정,30,2011-01,053-667-3900,35.8489555,128.4791174,2019-09-16
"대구광역시 달서구청",대구광역시 달서구 감삼남길 144(감삼동),대구광역시 달서구 감삼동 195-23,어린이보호,1,200,고정,30,2011-01,053-667-3900,35.84950978,128.5447406,2019-09-16
"대구광역시 달서구청",대구광역시 달서구 상인로 68-9(상인동),대구광역시 달서구 상인동 1550,생활방범,1,200,고정,30,2011-01,053-667-3900,35.81377942,128.5490439,2019-09-16
"대구광역시 달서구청",대구광역시 달서구 월곡로53동길 22(상인동),대구광역시 달서구 상인동 1430-7,생활방범,1,200,고정,30,2011-01,053-667-3900,35.81526064,128.5364277,2019-09-16
"대구광역시 달서구청",대구광역시 달서구 월배로80길 59(송현동),대구광역시 달서구 송현동 1981-5,생활방범,1,200,고정,30,2011-01,053-667-3900,35.82835127,128.5535495,2019-09-16
"대구광역시 달서구청",대구광역시 달서구 월배로72길 30,,생활방범,1,200,고정,30,2011-01,053-667-3900,35.8256862,128.5494274,2019-09-16
"대구광역시 달서구청",대구광역시 달서구 진천로3길 112(진천동),대구광역시 달서구 진천동 695-27,생활방범,1,200,고정,30,2011-01,053-667-3900,35.81027549,128.5202386,2019-09-16
"대구광역시 달서구청",대구광역시 달서구 진천로9길 28,,생활방범,1,200,고정,30,2011-01,053-667-3900,35.8127106,128.522962,2019-09-16
"대구광역시 달서구청",대구광역시 달서구 구마로14남길 60(본동),대구광역시 달서구 본동 706,생활방범,1,200,고정,30,2011-01,053-667-3900,35.83564139,128.5319653,2019-09-16
"대구광역시 달서구청",대구광역시 달서구 월배로28안길 56(진천동),대구광역시 달서구 진천동 235-7,생활방범,1,200,회전,30,2016-01,053-667-3900,35.813001,128.5280467,2019-09-16
"대구광역시 달서구청",대구광역시 달서구 달구벌대로 1467,,기타,1,200,,30,2011-01,053-667-3900,35.8494607,128.5274266,2019-09-16
"대구광역시 달서구청",대구광역시 달서구 달구벌대로 1396,,기타,1,200,,30,2011-01,053-667-3900,35.8500843,128.5200199,2019-09-16
"대구광역시 달서구청",대구광역시 달서구 선원로 284,,기타,1,200,,30,2011-01,053-667-3900,35.8585584,128.5235696,2019-09-16
"대구광역시 달서구청",대구광역시 달서구 용산큰못길 30,,기타,1,200,,30,2011-01,053-667-3900,35.859653,128.5282149,2019-09-16
"대구광역시 달서구청",대구광역시 달서구 달서대로 696,,기타,1,200,,30,2011-01,053-667-3900,35.8616987,128.4926383,2019-09-16
"대구광역시 달서구청",대구광역시 달서구 야외음악당로53길 40(두류동),대구광역시 달서구 두류동 105-1,생활방범,1,200,고정,30,2011-01,053-667-3900,35.85791689,128.562811,2019-09-16
"대구광역시 달서구청",대구광역시 달서구 두류공원로50길 42(두류동),대구광역시 달서구 두류동 142-6,생활방범,1,200,고정,30,2011-01,053-667-3900,35.85673465,128.5611875,2019-09-16
"대구광역시 달서구청",대구광역시 달서구 야외음악당로33길 40(두류동),대구광역시 달서구 두류동 624-1,생활방범,1,200,고정,30,2011-01,053-667-3900,35.85266856,128.5536746,2019-09-16
"대구광역시 달서구청",대구광역시 달서구 당산로24길 13(성당동),대구광역시 달서구 성당동 695-147,생활방범,1,200,고정,30,2011-01,053-667-3900,35.84704314,128.5460632,2019-09-16
"대구광역시 달서구청",대구광역시 달서구 파도고개로 215(두류동),대구광역시 달서구 두류동 109-15,생활방범,1,200,고정,30,2011-01,053-667-3900,35.85793283,128.5651487,2019-09-16
"대구광역시 달서구청",대구광역시 달서구 야외음악당로7길 70(성당동),대구광역시 달서구 성당동 412-4,생활방범,1,200,고정,30,2011-01,053-667-3900,35.84013479,128.5489492,2019-09-16
"대구광역시 달서구청",대구광역시 달서구 파도고개로 130-4,,생활방범,1,200,고정,30,2011-01,053-667-3900,35.8554317,128.5685949,2019-09-16
"대구광역시 달서구청",대구광역시 달서구 호산동로36길 21(호산동),대구광역시 달서구 호산동 357-21,생활방범,1,200,고정,30,2012-01,053-667-3900,35.85083974,128.4870475,2019-09-16
"대구광역시 달서구청",대구광역시 달서구 장기로13길 34(성당동),대구광역시 달서구 성당동 487-22,생활방범,1,200,고정,30,2012-01,053-667-3900,35.84169119,128.5534985,2019-09-16
"대구광역시 달서구청",대구광역시 달서구 월곡로47길 41(상인동),대구광역시 달서구 상인동 1417,생활방범,1,200,고정,30,2012-01,053-667-3900,35.8147289,128.5384271,2019-09-16
"대구광역시 달서구청",대구광역시 달서구 중흥로11길 25(송현동),대구광역시 달서구 송현동 2010-20,생활방범,1,200,고정,30,2012-01,053-667-3900,35.83019237,128.558864,2019-09-16
"대구광역시 달서구청",대구광역시 달서구 한실로 137(도원동),대구광역시 달서구 도원동 1439-5,어린이보호,1,200,고정,30,2012-01,053-667-3900,35.80665732,128.5415046,2019-09-16
"대구광역시 달서구청",대구광역시 달서구 상인로 139(상인동),대구광역시 달서구 상인동 1517,어린이보호,1,200,고정,30,2012-01,053-667-3900,35.8184141,128.5433284,2019-09-16
"대구광역시 달서구청",대구광역시 달서구 송현로7길 15(상인동),대구광역시 달서구 상인동 860-2,어린이보호,1,200,회전,30,2019-01,053-667-3900,35.82091861,128.5469351,2019-09-16
"대구광역시 달서구청",대구광역시 달서구 상인로26길 34(상인동),대구광역시 달서구 상인동 1531-2,어린이보호,1,200,고정,30,2012-01,053-667-3900,35.8175084,128.5462476,2019-09-16
"대구광역시 달서구청",대구광역시 달서구 중흥로8길 42(송현동),대구광역시 달서구 송현동 1998-2,어린이보호,1,200,고정,30,2012-01,053-667-3900,35.8294045,128.5544425,2019-09-16
"대구광역시 달서구청",대구광역시 달서구 월배로75길 78(송현동),대구광역시 달서구 송현동 554,어린이보호,1,200,고정,30,2012-01,053-667-3900,35.83085801,128.5475248,2019-09-16
"대구광역시 달서구청",대구광역시 달서구 중흥로16길 65(송현동),대구광역시 달서구 송현동 1990,어린이보호,1,200,고정,30,2012-01,053-667-3900,35.82658062,128.5564083,2019-09-16
"대구광역시 달서구청",대구광역시 달서구 비슬로538길 7(대곡동),대구광역시 달서구 대곡동 7-9,어린이보호,1,200,고정,30,2012-01,053-667-3900,35.80770731,128.5096458,2019-09-16
"대구광역시 달서구청",대구광역시 달서구 당산로21안길 42(감삼동),대구광역시 달서구 감삼동 295-31,어린이보호,1,200,고정,30,2012-01,053-667-3900,35.84538745,128.5435013,2019-09-16
"대구광역시 달서구청",대구광역시 달서구 선원로14길 15(신당동),대구광역시 달서구 신당동 1761-18,어린이보호,1,200,고정,30,2012-01,053-667-3900,35.85827869,128.4994606,2019-09-16
"대구광역시 달서구청",대구광역시 달서구 서당로7길 100(신당동),대구광역시 달서구 신당동 1814,어린이보호,1,200,고정,30,2012-01,053-667-3900,35.85393808,128.4942067,2019-09-16
"대구광역시 달서구청",대구광역시 달서구 야외음악당로41길 57(두류동),대구광역시 달서구 두류동 487-23,어린이보호,1,200,고정,30,2012-01,053-667-3900,35.85637104,128.5560476,2019-09-16
"대구광역시 달서구청",대구광역시 달서구 장기로 50(성당동),,어린이보호,1,200,고정,30,2012-01,053-667-3900,35.8430861,128.5551532,2019-09-16
"대구광역시 달서구청",대구광역시 달서구 대명천로 93(성당동),대구광역시 달서구 성당동 824,어린이보호,1,200,고정,30,2012-01,053-667-3900,35.8392021,128.5496622,2019-09-16
"대구광역시 달서구청",대구광역시 달서구 선원로57길 20(용산동),대구광역시 달서구 용산동 561-6,어린이보호,1,200,고정,30,2012-01,053-667-3900,35.85995912,128.5238635,2019-09-16
"대구광역시 달서구청",대구광역시 달서구 성지로16길 35(용산동),대구광역시 달서구 용산동 455-9,어린이보호,1,200,회전,30,2015-01,053-667-3900,35.85663969,128.5224122,2019-09-16
"대구광역시 달서구청",대구광역시 달서구 와룡로46길 22-1,,다목적,1,200,고정,30,2012-01,053-667-3900,35.8522082,128.5387407,2019-09-16
"대구광역시 달서구청",대구광역시 달서구 서당로3길 19-10,,다목적,1,200,고정,30,2012-01,053-667-3900,35.8527723,128.494319,2019-09-16
"대구광역시 달서구청",대구광역시 달서구 서당로7길 93,,다목적,1,200,고정,30,2012-01,053-667-3900,35.8542605,128.4938677,2019-09-16
"대구광역시 달서구청",대구광역시 달서구 당산동3길 11,,다목적,1,200,고정,30,2012-01,053-667-3900,35.8463049,128.5464633,2019-09-16
"대구광역시 달서구청",대구광역시 달서구 야외음악당로47안길 6,,다목적,1,200,고정,30,2012-01,053-667-3900,35.8568997,128.5596206,2019-09-16
"대구광역시 달서구청",대구광역시 달서구 상인로 128,대구광역시 달서구 상인동 1530,다목적,1,200,고정,30,2012-01,053-667-3900,35.81798192,128.5446102,2019-09-16
"대구광역시 달서구청",대구광역시 달서구 중흥로12길 16,,다목적,1,200,고정,30,2012-01,053-667-3900,35.8289328,128.5572383,2019-09-16
"대구광역시 달서구청",대구광역시 달서구 상화로5길 55,,다목적,1,200,고정,30,2012-01,053-667-3900,35.8112034,128.5186454,2019-09-16
"대구광역시 달서구청",대구광역시 달서구 구마로14남길 55,,다목적,1,200,회전,30,2019-01,053-667-3900,35.8333049,128.5324455,2019-09-16
"대구광역시 달서구청",대구광역시 달서구 수밭길 1,,다목적,1,200,고정,30,2012-01,053-667-3900,35.7979248,128.5485503,2019-09-16
"대구광역시 달서구청",대구광역시 달서구 월배로67안길 14(송현동),대구광역시 달서구 송현동 1918-2,다목적,1,200,고정,30,2012-01,053-667-3900,35.82668111,128.5463100,2019-09-16
"대구광역시 달서구청",대구광역시 달서구 학산로50길 18-6,,다목적,1,200,고정,30,2012-01,053-667-3900,35.8332994,128.5522349,2019-09-16
"대구광역시 달서구청",대구광역시 달서구 감삼2길 22,,다목적,1,200,고정,30,2012-01,053-667-3900,35.8491545,128.5399533,2019-09-16
"대구광역시 달서구청",대구광역시 달서구 계대동문로9길 19-5,,다목적,1,200,고정,30,2012-01,053-667-3900,35.8565472,128.4969056,2019-09-16
"대구광역시 달서구청",대구광역시 달서구 야외음악당로11길 14-7,,다목적,1,200,고정,30,2012-01,053-667-3900,35.8420113,128.5519178,2019-09-16
"대구광역시 달서구청",대구광역시 달서구 선원로55길 11-8,,다목적,1,200,고정,30,2012-01,053-667-3900,35.85949149,128.5226059,2019-09-16
"대구광역시 달서구청",대구광역시 달서구 성지로16길 45(용산동),대구광역시 달서구 용산동 459-1,다목적,1,200,고정,30,2012-01,053-667-3900,35.85703549,128.5225599,2019-09-16
"대구광역시 달서구청",대구광역시 달서구 진천로9길 28,,다목적,1,200,고정,30,2012-01,053-667-3900,35.8127106,128.522962,2019-09-16
"대구광역시 달서구청",대구광역시 달서구 월곡로 410(월성동),대구광역시 달서구 월성동 87,다목적,1,200,회전,30,2014-01,053-667-3900,35.8281201,128.5288887,2019-09-16
"대구광역시 달서구청",대구광역시 달서구 상인로9안길 3,,다목적,1,200,고정,30,2012-01,053-667-3900,35.8106678,128.5477549,2019-09-16
"대구광역시 달서구청",대구광역시 달서구 상원로 32(상인동),대구광역시 달서구 상인동 1421-22,다목적,1,200,고정,30,2012-01,053-667-3900,35.81283464,128.5367433,2019-09-16
"대구광역시 달서구청",대구광역시 달서구 월배로34길 27,,다목적,1,200,고정,30,2012-01,053-667-3900,35.8153204,128.5327161,2019-09-16
"대구광역시 달서구청",대구광역시 달서구 월곡로26길 37(상인동),대구광역시 달서구 상인동 1583-7,생활방범,1,200,고정,30,2012-01,053-667-3900,35.80870683,128.5506273,2019-09-16
"대구광역시 달서구청",대구광역시 달서구 월곡로 99(도원동),대구광역시 달서구 도원동 696-3,생활방범,1,200,고정,30,2012-01,053-667-3900,35.80626709,128.5499657,2019-09-16
"대구광역시 달서구청",대구광역시 달서구 상화로57길 56,,생활방범,1,200,고정,30,2012-01,053-667-3900,35.8106927,128.544057,2019-09-16
"대구광역시 달서구청",대구광역시 달서구 앞산순환로49길 31(송현동),대구광역시 달서구 송현동 1972,생활방범,1,200,고정,30,2012-01,053-667-3900,35.82621514,128.5535457,2019-09-16
"대구광역시 달서구청",대구광역시 달서구 중흥로4길 79(송현동),대구광역시 달서구 송현동 1980-4,생활방범,1,200,고정,30,2012-01,053-667-3900,35.82967187,128.5525404,2019-09-16
"대구광역시 달서구청",대구광역시 달서구 월배로88길 23(송현동),대구광역시 달서구 송현동 206-17,생활방범,1,200,고정,30,2012-01,053-667-3900,35.83177361,128.5541378,2019-09-16
"대구광역시 달서구청",대구광역시 달서구 진천로3길 85(진천동),대구광역시 달서구 진천동 470-27,생활방범,1,200,고정,30,2012-01,053-667-3900,35.8102002,128.5215438,2019-09-16
"대구광역시 달서구청",대구광역시 달서구 조암로5길 22(월성동),대구광역시 달서구 월성동 1224,생활방범,1,200,고정,30,2012-01,053-667-3900,35.82324726,128.5281259,2019-09-16
"대구광역시 달서구청",대구광역시 달서구 상화북로 25-5(진천동),대구광역시 달서구 진천동 265-22,생활방범,1,200,고정,30,2012-01,053-667-3900,35.81092194,128.529051,2019-09-16
"대구광역시 달서구청",대구광역시 달서구 와룡로2길 84(본동),대구광역시 달서구 본동 793,생활방범,1,200,회전,30,2015-01,053-667-3900,35.83592968,128.5401092,2019-09-16
"대구광역시 달서구청",대구광역시 달서구 앞산순환로39길 9(송현동),대구광역시 달서구 송현동 1951,생활방범,1,200,고정,30,2012-01,053-667-3900,35.82146574,128.5514542,2019-09-16
"대구광역시 달서구청",대구광역시 달서구 두류공원로28안길 19(성당동),대구광역시 달서구 성당동 81-83,생활방범,1,200,고정,30,2012-01,053-667-3900,35.8493444,128.5681216,2019-09-16
"대구광역시 달서구청",대구광역시 달서구 두류공원로50길 14(두류동),대구광역시 달서구 두류동 146-1,생활방범,1,200,고정,30,2012-01,053-667-3900,35.85621879,128.5597113,2019-09-16
"대구광역시 달서구청",대구광역시 달서구 야외음악당로39길 63(두류동),대구광역시 달서구 두류동 613-13,생활방범,1,200,고정,30,2012-01,053-667-3900,35.85444539,128.5534102,2019-09-16
"대구광역시 달서구청",대구광역시 달서구 와룡로15길 28(본리동),대구광역시 달서구 본리동 412-2,생활방범,1,200,고정,30,2012-01,053-667-3900,35.83943159,128.5350502,2019-09-16
"대구광역시 달서구청",대구광역시 달서구 감삼북길 91-5(감삼동),대구광역시 달서구 감삼동 128-18,생활방범,1,200,회전,30,2019-01,053-667-3900,35.8517964,128.5439358,2019-09-16
"대구광역시 달서구청",대구광역시 달서구 밤골2길 4(두류동),대구광역시 달서구 두류동 840-31,생활방범,1,200,고정,30,2012-01,053-667-3900,35.8598012,128.5687825,2019-09-16
"대구광역시 달서구청",대구광역시 달서구 성당로35길 45(성당동),대구광역시 달서구 성당동 85-11,생활방범,1,200,고정,30,2012-01,053-667-3900,35.85100082,128.5691292,2019-09-16
"대구광역시 달서구청",대구광역시 달서구 명덕로2길 133(두류동),대구광역시 달서구 두류동 1181-5,생활방범,1,200,고정,30,2012-01,053-667-3900,35.85603955,128.5709589,2019-09-16
"대구광역시 달서구청",대구광역시 달서구 선원로59길 87(용산동),대구광역시 달서구 용산동 529-1,생활방범,1,200,고정,30,2012-01,053-667-3900,35.86192424,128.5238443,2019-09-16
"대구광역시 달서구청",대구광역시 달서구 용산큰못길 53-13(용산동),대구광역시 달서구 용산동 958-19,생활방범,1,200,고정,30,2012-01,053-667-3900,35.86120871,128.526662,2019-09-16
"대구광역시 달서구청",대구광역시 달서구 한들로 13,,생활방범,1,200,고정,30,2012-01,053-667-3900,35.8481177,128.5290805,2019-09-16
"대구광역시 달서구청",대구광역시 달서구 성서서로47길 28(신당동),대구광역시 달서구 신당동 1179,생활방범,1,200,고정,30,2012-01,053-667-3900,35.84623044,128.4967098,2019-09-16
"대구광역시 달서구청",대구광역시 달서구 선원로37남길 15(이곡동),대구광역시 달서구 이곡동 1351-11,어린이보호,1,200,고정,30,2012-01,053-667-3900,35.85950759,128.5136519,2019-09-16
"대구광역시 달서구청",대구광역시 달서구 구마로46길 48(송현동),대구광역시 달서구 송현동 121-3,생활방범,1,200,고정,30,2012-01,053-667-3900,35.83487208,128.552643,2019-09-16
"대구광역시 달서구청",대구광역시 달서구 학산로2길 39,,생활방범,1,200,고정,30,2012-01,053-667-3900,35.824599,128.534675,2019-09-16
"대구광역시 달서구청",대구광역시 달서구 중흥로10길 62(송현동),대구광역시 달서구 송현동1984-26,생활방범,1,200,고정,30,2012-01,053-667-3900,35.82795814,128.5547532,2019-09-16
"대구광역시 달서구청",대구광역시 달서구 대명천로55길 25(본리동),대구광역시 달서구 본리동 1201-4,생활방범,1,200,고정,30,2012-01,053-667-3900,35.84041861,128.5299447,2019-09-16
"대구광역시 달서구청",대구광역시 달서구 감삼길 115(감삼동),대구광역시 달서구 감삼동 131-7,생활방범,1,200,고정,30,2012-01,053-667-3900,35.84995353,128.5443427,2019-09-16
"대구광역시 달서구청",대구광역시 달서구 와룡로10안길 11,,다목적,1,200,고정,30,2012-01,053-667-3900,35.8361317,128.5394677,2019-09-16
"대구광역시 달서구청",대구광역시 달서구 당산로 37-25,,다목적,1,200,고정,30,2012-01,053-667-3900,35.8405655,128.5418345,2019-09-16
"대구광역시 달서구청",대구광역시 달서구 와룡로43길 36-5,,다목적,1,200,고정,30,2012-01,053-667-3900,35.8523017,128.5349583,2019-09-16
"대구광역시 달서구청",대구광역시 달서구 중흥로5길 20-29(송현동),대구광역시 달서구 송현동 240-19,생활방범,1,200,고정,30,2013-01,053-667-3900,35.83118164,128.5574279,2019-09-16
"대구광역시 달서구청",대구광역시 달서구 송현로25길 48(송현동),대구광역시 달서구 송현동 594-6,생활방범,1,200,회전,30,2013-01,053-667-3900,35.8307838,128.5439371,2019-09-16
"대구광역시 달서구청",대구광역시 달서구 구마로48길 26(송현동),대구광역시 달서구 송현동 66-8,생활방범,1,200,고정,30,2013-01,053-667-3900,35.83580315,128.5540109,2019-09-16
"대구광역시 달서구청",대구광역시 달서구 상인로 24(상인3동),대구광역시 달서구 상인동 1562,생활방범,1,200,고정,30,2013-01,053-667-3900,35.8105786,128.5512459,2019-09-16
"대구광역시 달서구청",대구광역시 달서구 월배로14길 16(진천동),대구광역시 달서구 진천동 626-1,생활방범,1,200,고정,30,2013-01,053-667-3900,35.81270364,128.5215212,2019-09-16
"대구광역시 달서구청",대구광역시 달서구 조암남로 116,,생활방범,1,200,고정,30,2013-01,053-667-3900,35.8194336,128.5202759,2019-09-16
"대구광역시 달서구청",대구광역시 달서구 야외음악당로47길 116(두류동),대구광역시 달서구 두류동 137-87,생활방범,1,200,고정,30,2013-01,053-667-3900,35.85842385,128.5623177,2019-09-16
"대구광역시 달서구청",대구광역시 달서구 장기로7길 15(성당동),대구광역시 달서구 성당동 461-1,생활방범,1,200,고정,30,2013-01,053-667-3900,35.84205315,128.5551394,2019-09-16
"대구광역시 달서구청",대구광역시 달서구 와룡로49길 24(죽전동),대구광역시 달서구 죽전동 376-8,생활방범,1,200,고정,30,2013-01,053-667-3900,35.85444372,128.5359283,2019-09-16
"대구광역시 달서구청",대구광역시 달서구 와룡로57길 87(용산동),대구광역시 달서구 용산동 860-14,생활방범,1,200,고정,30,2013-01,053-667-3900,35.85794794,128.5323203,2019-09-16
"대구광역시 달서구청",대구광역시 달서구 도원로 42(도원동),대구광역시 달서구 도원동 1442-2,어린이보호,1,200,고정,30,2013-01,053-667-3900,35.80600034,128.5352145,2019-09-16
"대구광역시 달서구청",대구광역시 달서구 앞산순환로45길 3(송현동),대구광역시 달서구 송현동 1968-6,어린이보호,1,200,고정,30,2013-01,053-667-3900,35.82370035,128.5535614,2019-09-16
"대구광역시 달서구청",대구광역시 달서구 월배로40길 15(상인동),대구광역시 달서구 상인동252-24,어린이보호,1,200,고정,30,2013-01,053-667-3900,35.81747364,128.5354031,2019-09-16
"대구광역시 달서구청",대구광역시 달서구 상원로9길 54-14(진천동),대구광역시 달서구 진천동 813-11,어린이보호,1,200,고정,30,2013-01,053-667-3900,35.81300445,128.5330264,2019-09-16
"대구광역시 달서구청",대구광역시 달서구 월배로80길 30(송현동),대구광역시 달서구 송현동 1936-37,어린이보호,1,200,고정,30,2013-01,053-667-3900,35.82895272,128.5521259,2019-09-16
"대구광역시 달서구청",대구광역시 달서구 월곡로 320(상인동),대구광역시 달서구 상인동 42,어린이보호,1,200,고정,30,2013-01,053-667-3900,35.8225367,128.5352953,2019-09-16
"대구광역시 달서구청",대구광역시 달서구 월곡로35길 79(상인동),대구광역시 달서구 상인동 438-5,어린이보호,1,200,고정,30,2013-01,053-667-3900,35.80992971,128.541338,2019-09-16
"대구광역시 달서구청",대구광역시 달서구 도원남로 56(도원동),대구광역시 달서구 도원동 1457-4,어린이보호,1,200,고정,30,2013-01,053-667-3900,35.8040035,128.5351156,2019-09-16
"대구광역시 달서구청",대구광역시 달서구 상원로1길 14(상인동),대구광역시 달서구 상인동 1459-5,어린이보호,1,200,고정,30,2013-01,053-667-3900,35.81058938,128.5349356,2019-09-16
"대구광역시 달서구청",대구광역시 달서구 월배로83길 120-10(송현동),대구광역시 달서구 송현동 528-1,어린이보호,1,200,고정,30,2013-01,053-667-3900,35.8324622,128.5455283,2019-09-16
"대구광역시 달서구청",대구광역시 달서구 송현로12안길 12(송현동),대구광역시 달서구 송현동 1945-6,어린이보호,1,200,고정,30,2013-01,053-667-3900,35.8233698,128.5470295,2019-09-16
"대구광역시 달서구청",대구광역시 달서구 월배로28안길 17-5 (진천동),대구광역시 달서구 진천동 223-13,어린이보호,1,200,고정,30,2013-01,053-667-3900,35.81457126,128.5293316,2019-09-16
"대구광역시 달서구청",대구광역시 달서구 비슬로 2728-20(진천동),대구광역시 달서구 대곡동 56-2,어린이보호,1,200,고정,30,2013-01,053-667-3900,35.8092034,128.5152522,2019-09-16
"대구광역시 달서구청",대구광역시 달서구 진천로 46 (진천동),대구광역시 달서구 진천동 503,어린이보호,1,200,고정,30,2013-01,053-667-3900,35.81296779,128.5250318,2019-09-16
"대구광역시 달서구청",대구광역시 달서구 조암남로19길 11 (대천동),대구광역시 달서구 월성동 1395-3,어린이보호,1,200,고정,30,2013-01,053-667-3900,35.81935795,128.5229983,2019-09-16
"대구광역시 달서구청",대구광역시 달서구 월곡로53서길 18 (상인동),대구광역시 달서구 상인동 1431-7,어린이보호,1,200,고정,30,2013-01,053-667-3900,35.81479695,128.5353069,2019-09-16
"대구광역시 달서구청",대구광역시 달서구 송현로7안길 14(상인동),대구광역시 달서구 상인동 925,어린이보호,1,200,고정,30,2013-01,053-667-3900,35.81838448,128.5472386,2019-09-16
"대구광역시 달서구청",대구광역시 달서구 월배로23길 67 (진천동),대구광역시 달서구 대천동 570-10,어린이보호,1,200,고정,30,2013-01,053-667-3900,35.81769849,128.5253131,2019-09-16
"대구광역시 달서구청",대구광역시 달서구 진천로3길 31 (진천동),대구광역시 달서구 진천동 373,어린이보호,1,200,회전,30,2018-01,053-667-3900,35.80990595,128.5244054,2019-09-16
"대구광역시 달서구청",대구광역시 달서구 상화로51길 11(상인동),대구광역시 달서구 상인동 1332-67,어린이보호,1,200,고정,30,2013-01,053-667-3900,35.80927682,128.5422077,2019-09-16
"대구광역시 달서구청",대구광역시 달서구 비슬로542길 19(진천동),대구광역시 달서구 대곡동 37,어린이보호,1,200,고정,30,2013-01,053-667-3900,35.80834461,128.5123366,2019-09-16
"대구광역시 달서구청",대구광역시 달서구 와룡로2길 19(본동),대구광역시 달서구 본동 1108,어린이보호,1,200,회전,30,2015-01,053-667-3900,35.83400712,128.5387126,2019-09-16
"대구광역시 달서구청",대구광역시 달서구 조암남로10길 50(월성동),대구광역시 달서구 월성동 1181,어린이보호,1,200,고정,30,2013-01,053-667-3900,35.822742,128.525737,2019-09-16
"대구광역시 달서구청",대구광역시 달서구 중흥로8길 106(송현동),대구광역시 달서구 송현동 439,어린이보호,1,200,고정,30,2013-01,053-667-3900,35.82704033,128.5524668,2019-09-16
"대구광역시 달서구청",대구광역시 달서구 월성로 74-1,,다목적,1,200,고정,30,2013-01,053-667-3900,35.8312388,128.526974,2019-09-16
"대구광역시 달서구청",대구광역시 달서구 학산로7길 39,,다목적,1,200,회전,30,2013-01,053-667-3900,35.8326319,128.530545,2019-09-16
"대구광역시 달서구청",대구광역시 달서구 상화로 371,,다목적,1,200,고정,30,2013-01,053-667-3900,35.8092074,128.5529223,2019-09-16
"대구광역시 달서구청",대구광역시 달서구 상인로 68-9,,다목적,1,200,고정,30,2013-01,053-667-3900,35.8137876,128.5490732,2019-09-16
"대구광역시 달서구청",대구광역시 달서구 도원남로 80,,다목적,1,200,고정,30,2013-01,053-667-3900,35.8032151,128.5368806,2019-09-16
"대구광역시 달서구청",대구광역시 달서구 서당로 15(신당동),대구광역시 달서구 신당동 1840-1,어린이보호,1,200,고정,30,2013-01,053-667-3900,35.85301381,128.4954000,2019-09-16
"대구광역시 달서구청",대구광역시 달서구 성서동로 350(용산동),대구광역시 달서구 용산동 905,어린이보호,1,200,고정,30,2013-01,053-667-3900,35.8516974,128.5165254,2019-09-16
"대구광역시 달서구청",대구광역시 달서구 당산로 12(본리동),대구광역시 달서구 본리동 208-1,어린이보호,1,200,고정,30,2013-01,053-667-3900,35.8385119,128.545108,2019-09-16
"대구광역시 달서구청",대구광역시 달서구 계대동문로 99(이곡동),대구광역시 달서구 이곡동 1191,어린이보호,1,200,고정,30,2013-01,053-667-3900,35.8562329,128.5031315,2019-09-16
"대구광역시 달서구청",대구광역시 달서구 새방로 6-1(용산동),대구광역시 달서구 용산동 577-6,어린이보호,1,200,고정,30,2013-01,053-667-3900,35.85947412,128.5214023,2019-09-16
"대구광역시 달서구청",대구광역시 달서구 신당로 63(용산동),대구광역시 달서구 신당동 1846-3,어린이보호,1,200,고정,30,2013-01,053-667-3900,35.85378067,128.499489,2019-09-16
"대구광역시 달서구청",대구광역시 달서구 죽전4길 40(죽전동),대구광역시 달서구 감삼동 52-2,어린이보호,1,200,고정,30,2013-01,053-667-3900,35.85474792,128.5424404,2019-09-16
"대구광역시 달서구청",대구광역시 달서구 이곡동로 24,,어린이보호,1,200,고정,30,2013-01,053-667-3900,35.8533378,128.5101866,2019-09-16
"대구광역시 달서구청",대구광역시 달서구 장기로 291-1,대구광역시 달서구 장기동 815-6,어린이보호,1,200,고정,30,2013-01,053-667-3900,35.84341822,128.5283153,2019-09-16
"대구광역시 달서구청",대구광역시 달서구 구마로 171(본리동),대구광역시 달서구 본리동 210-1,어린이보호,1,200,고정,30,2013-01,053-667-3900,35.8377472,128.5467643,2019-09-16
"대구광역시 달서구청",대구광역시 달서구 달구벌대로283길 19(장기동),대구광역시 달서구 장기동 74-3,어린이보호,1,200,고정,30,2013-01,053-667-3900,35.85151099,128.5224128,2019-09-16
"대구광역시 달서구청",대구광역시 달서구 와룡로15길 63(본리동),대구광역시 달서구 본리동 645-8,어린이보호,1,200,고정,30,2013-01,053-667-3900,35.8395567,128.5332487,2019-09-16
"대구광역시 달서구청",대구광역시 달서구 서당로12길 32(신당동),대구광역시 달서구 신당동 494-2,어린이보호,1,200,고정,30,2013-01,053-667-3900,35.85722519,128.4970403,2019-09-16
"대구광역시 달서구청",대구광역시 달서구 용산로4길 32(본리동),대구광역시 달서구 본리동 669,어린이보호,1,200,고정,30,2013-01,053-667-3900,35.83843377,128.532411,2019-09-16
"대구광역시 달서구청",대구광역시 달서구 선원로53길 34-10(용산동),대구광역시 달서구 용산동 477,어린이보호,1,200,고정,30,2013-01,053-667-3900,35.86015477,128.5224032,2019-09-16
"대구광역시 달서구청",대구광역시 달서구 감삼남길 53(감삼동),대구광역시 달서구 감삼동 164-13,어린이보호,1,200,고정,30,2013-01,053-667-3900,35.84812454,128.5401368,2019-09-16
"대구광역시 달서구청",대구광역시 달서구 죽전1안길 12(죽전동),대구광역시 달서구 죽전동 250-33,어린이보호,1,200,고정,30,2013-01,053-667-3900,35.85267586,128.5402231,2019-09-16
"대구광역시 달서구청",대구광역시 달서구 야외음악당로 109(두류동),대구광역시 달서구 두류동 745-6,어린이보호,1,200,고정,30,2013-01,053-667-3900,35.84704524,128.5515099,2019-09-16
"대구광역시 달서구청",대구광역시 달서구 이곡공원로1길 14(이곡동),대구광역시 달서구 이곡동 431,어린이보호,1,200,고정,30,2013-01,053-667-3900,35.85605118,128.5083262,2019-09-16
"대구광역시 달서구청",대구광역시 달서구 대명천로8길 3(성당동),대구광역시 달서구 성당동 298,어린이보호,1,200,고정,30,2013-01,053-667-3900,35.83892354,128.5555713,2019-09-16
"대구광역시 달서구청",대구광역시 달서구 문화회관2길 51(장기동),대구광역시 달서구 장기동 240,어린이보호,1,200,고정,30,2013-01,053-667-3900,35.8475269,128.5190412,2019-09-16
"대구광역시 달서구청",대구광역시 달서구 달구벌대로301길 54(용산동),대구광역시 달서구 용산동 226-14,어린이보호,1,200,고정,30,2013-01,053-667-3900,35.8522167,128.5320494,2019-09-16
"대구광역시 달서구청",대구광역시 달서구 선원로23남길 56-15,,다목적,1,200,고정,30,2013-01,053-667-3900,35.8600589,128.501858,2019-09-16
"대구광역시 달서구청",대구광역시 달서구 선원남로 99,,다목적,1,200,고정,30,2013-01,053-667-3900,35.858196,128.5118664,2019-09-16
"대구광역시 달서구청",대구광역시 달서구 새동네로13길 3,,다목적,1,200,고정,30,2013-01,053-667-3900,35.8537228,128.5214985,2019-09-16
"대구광역시 달서구청",대구광역시 달서구 감삼남2길 108,,다목적,1,200,고정,30,2013-01,053-667-3900,35.8453363,128.5423983,2019-09-16
"대구광역시 달서구청",대구광역시 달서구 용산로 205(용산동),대구광역시 달서구 용산동 949,다목적,1,200,고정,30,2013-01,053-667-3900,35.85598189,128.5285095,2019-09-16
"대구광역시 달서구청",대구광역시 달서구 서당로 30,,다목적,1,200,고정,30,2013-01,053-667-3900,35.8545521,128.4963628,2019-09-16
"대구광역시 달서구청",대구광역시 달서구 장기로57서길 40,,다목적,1,200,고정,30,2013-01,053-667-3900,35.8427613,128.5280055,2019-09-16
"대구광역시 달서구청",대구광역시 달서구 달구벌대로344길 50,,다목적,1,200,고정,30,2013-01,053-667-3900,35.8545287,128.5521351,2019-09-16
"대구광역시 달서구청",대구광역시 달서구 월배로11길 42(월성동),대구광역시 달서구 대천동 467,어린이보호,1,200,고정,30,2013-01,053-667-3900,35.8170682,128.5188111,2019-09-16
"대구광역시 달서구청",대구광역시 달서구 조암남로 147(월성동),대구광역시 달서구 대천동 463,어린이보호,1,200,회전,30,2013-01,053-667-3900,35.81693588,128.5183066,2019-09-16
"대구광역시 달서구청",대구광역시 달서구 월곡로 211(상인동),대구광역시 달서구 상인동 481,어린이보호,1,200,회전,30,2013-01,053-667-3900,35.813292,128.542499,2019-09-16
"대구광역시 달서구청",대구광역시 달서구 조암로 29,,어린이보호,1,200,회전,30,2013-01,053-667-3900,35.8246458,128.5269174,2019-09-16
"대구광역시 달서구청",대구광역시 달서구 학산로7길 5,,어린이보호,1,200,회전,30,2013-01,053-667-3900,35.8287845,128.5318819,2019-09-16
"대구광역시 달서구청",대구광역시 달서구 도원로 36,,어린이보호,1,200,회전,30,2013-01,053-667-3900,35.8064834,128.5352329,2019-09-16
"대구광역시 달서구청",대구광역시 달서구 장기로 173(본리동),대구광역시 달서구 본리동 76-3,어린이보호,1,200,회전,30,2013-01,053-667-3900,35.84256383,128.5420251,2019-09-16
"대구광역시 달서구청",대구광역시 달서구 와룡로15길 51(본리동),대구광역시 달서구 본리동 649-5,어린이보호,1,200,회전,30,2013-01,053-667-3900,35.83927464,128.5338445,2019-09-16
"대구광역시 달서구청",대구광역시 달서구 달구벌대로291길 47-13(용산동),대구광역시 달서구 장기동 29,어린이보호,1,200,회전,30,2013-01,053-667-3900,35.85074485,128.5244781,2019-09-16
"대구광역시 달서구청",대구광역시 달서구 장기로 283(장기동),대구광역시 달서구 장기동 816-5,어린이보호,1,200,회전,30,2013-01,053-667-3900,35.84341412,128.5292451,2019-09-16
"대구광역시 달서구청",대구광역시 달서구 호산로 105,,어린이보호,1,200,회전,30,2013-01,053-667-3900,35.8493502,128.4775599,2019-09-16
"대구광역시 달서구청",대구광역시 달서구 당산동길 101(성당동),대구광역시 달서구 성당동 675-35,어린이보호,1,200,회전,30,2013-01,053-667-3900,35.84526662,128.5502023,2019-09-16
"대구광역시 달서구청",대구광역시 달서구 선원로55길 11-8(용산동),대구광역시 달서구 용산동 485-1,어린이보호,1,200,회전,30,2013-01,053-667-3900,35.85948655,128.5226867,2019-09-16
"대구광역시 달서구청",대구광역시 달서구 월배로11길 33,,다목적,1,200,회전,30,2013-01,053-667-3900,35.8147896,128.5184275,2019-09-16
"대구광역시 달서구청",대구광역시 달서구 와룡로49길 18-17(죽전동),대구광역시 달서구 죽전동 376-4,다목적,1,200,회전,30,2013-01,053-667-3900,35.8551821,128.5361037,2019-09-16
"대구광역시 달서구청",대구광역시 달서구 와룡로45길 56-5,,다목적,1,200,고정,30,2013-01,053-667-3900,35.8534729,128.533869,2019-09-16
"대구광역시 달서구청",대구광역시 달서구 수밭길 8(도원동),대구광역시 달서구 도원동 950,생활방범,1,200,회전,30,2013-01,053-667-3900,35.79790195,128.5481599,2019-09-16
"대구광역시 달서구청",대구광역시 달서구 송현로8길 88(송현동),대구광역시 달서구 송현동 1963-12,생활방범,1,200,회전,30,2013-01,053-667-3900,35.82516261,128.5511478,2019-09-16
"대구광역시 달서구청",대구광역시 달서구 월배로73길 12(송현동),대구광역시 달서구 송현동 1927-9,생활방범,1,200,회전,30,2013-01,053-667-3900,35.82773687,128.5480295,2019-09-16
"대구광역시 달서구청",대구광역시 달서구 명천로10길 14(진천동),대구광역시 달서구 대곡동 19-18,생활방범,1,200,회전,30,2013-01,053-667-3900,35.80591565,128.5113639,2019-09-16
"대구광역시 달서구청",대구광역시 달서구 비슬로550길 38,,생활방범,1,200,회전,30,2013-01,053-667-3900,35.8086275,128.5152605,2019-09-16
"대구광역시 달서구청",대구광역시 달서구 중흥로4길 125(송현동),대구광역시 달서구 송현동 1937-1,생활방범,1,200,회전,30,2013-01,053-667-3900,35.82799281,128.5511453,2019-09-16
"대구광역시 달서구청",대구광역시 달서구 월곡로20길 41(상인동),대구광역시 달서구 상인동 1590-11,생활방범,1,200,회전,30,2013-01,053-667-3900,35.806275,128.5522061,2019-09-16
"대구광역시 달서구청",대구광역시 달서구 학산로 140(본동),대구광역시 달서구 본동 804-2,생활방범,1,200,회전,30,2013-01,053-667-3900,35.8333518,128.5417135,2019-09-16
"대구광역시 달서구청",대구광역시 달서구 한실로6길 84-26,,생활방범,1,200,회전,30,2013-01,053-667-3900,35.79983123,128.5288513,2019-09-16
"대구광역시 달서구청",대구광역시 달서구 와룡로10길 42(본동),대구광역시 달서구 본동 780-1,생활방범,1,200,회전,30,2013-01,053-667-3900,35.8365017,128.5393272,2019-09-16
"대구광역시 달서구청",대구광역시 달서구 구마로39길 16(성당동),대구광역시 달서구 성당동 824-82,생활방범,1,200,회전,30,2013-01,053-667-3900,35.83817005,128.5489135,2019-09-16
"대구광역시 달서구청",대구광역시 달서구 성서동로 246(장기동),대구광역시 달서구 장동 320-1,생활방범,1,200,회전,30,2013-01,053-667-3900,35.84261508,128.516122,2019-09-16
"대구광역시 달서구청",대구광역시 달서구 성서동로60길 18(장기동),대구광역시 달서구 장기동 220-4,생활방범,1,200,회전,30,2013-01,053-667-3900,35.84762414,128.5166638,2019-09-16
"대구광역시 달서구청",대구광역시 달서구 새방로 87,,생활방범,1,200,회전,30,2013-01,053-667-3900,35.8651876,128.5262574,2019-09-16
"대구광역시 달서구청",대구광역시 달서구 야외음악당로39동길 37(두류동),대구광역시 달서구 두류동 488-22,생활방범,1,200,회전,30,2013-01,053-667-3900,35.85570936,128.5549026,2019-09-16
"대구광역시 달서구청",대구광역시 달서구 야외음악당로53길 3(두류동),대구광역시 달서구 두류동 116-19,생활방범,1,200,회전,30,2013-01,053-667-3900,35.85636453,128.5632332,2019-09-16
"대구광역시 달서구청",대구광역시 달서구 대명천로11길 22(성당동),대구광역시 달서구 성당동 264-4,생활방범,1,200,회전,30,2013-01,053-667-3900,35.83765855,128.5543006,2019-09-16
"대구광역시 달서구청",대구광역시 달서구 와룡로28길 121-14(성당동),대구광역시 달서구 감삼동 206-80,생활방범,1,200,회전,30,2013-01,053-667-3900,35.84540282,128.5440593,2019-09-16
"대구광역시 달서구청",대구광역시 달서구 진천로9길 46(진천동),대구광역시 달서구 진천동 628-30,생활방범,1,200,회전,30,2013-01,053-667-3900,35.81240274,128.5223226,2019-09-16
"대구광역시 달서구청",대구광역시 달서구 진천로18길 80-24(진천동),대구광역시 달서구 진천동 559-12,생활방범,1,200,회전,30,2013-01,053-667-3900,35.81699037,128.5264465,2019-09-16
"대구광역시 달서구청",대구광역시 달서구 월곡로53길 55(상인동),대구광역시 달서구 상인동 1411-4,생활방범,1,200,회전,30,2013-01,053-667-3900,35.81622642,128.5361244,2019-09-16
"대구광역시 달서구청",대구광역시 달서구 상원로9길 6(상인동),대구광역시 달서구 상인동 1443-6,생활방범,1,200,회전,30,2013-01,053-667-3900,35.81413979,128.5351254,2019-09-16
"대구광역시 달서구청",대구광역시 달서구 월배로80길 33(송현동),대구광역시 달서구 송현동 1980-21,생활방범,1,200,회전,30,2013-01,053-667-3900,35.82896906,128.5525137,2019-09-16
"대구광역시 달서구청",대구광역시 달서구 중흥로 3-11(송현동),대구광역시 달서구 송현동 195-9,생활방범,1,200,회전,30,2013-01,053-667-3900,35.8337121,128.5551695,2019-09-16
"대구광역시 달서구청",대구광역시 달서구 학산로7길 81-8(본동),대구광역시 달서구 본동 610-8,생활방범,1,200,회전,30,2013-01,053-667-3900,35.83554104,128.5302553,2019-09-16
"대구광역시 달서구청",대구광역시 달서구 선원로23북길 16-16(이곡동),대구광역시 달서구 이곡동 1321-5,생활방범,1,200,회전,30,2013-01,053-667-3900,35.86133047,128.5046507,2019-09-16
"대구광역시 달서구청",대구광역시 달서구 와룡로 282(죽전동),대구광역시 달서구 죽전동 180-1,생활방범,1,200,회전,30,2013-01,053-667-3900,35.85787885,128.5377008,2019-09-16
"대구광역시 달서구청",대구광역시 달서구 용산로 24길 70(감삼동),대구광역시 달서구 감삼동 601-5,생활방범,1,200,회전,30,2013-01,053-667-3900,35.84880721,128.5346282,2019-09-16
"대구광역시 달서구청",대구광역시 달서구 당산로41서길 9-19(죽전동),대구광역시 달서구 감삼동 49-3,생활방범,1,200,회전,30,2013-01,053-667-3900,35.85396043,128.5431768,2019-09-16
"대구광역시 달서구청",대구광역시 달서구 당산로36길 25-17(두류동),대구광역시 달서구 두류동 631-54,생활방범,1,200,회전,30,2013-01,053-667-3900,35.85264867,128.5501649,2019-09-16
"대구광역시 달서구청",대구광역시 달서구 명덕로2길 91,대구광역시 달서구 두류동 804-167,생활방범,1,200,회전,30,2013-01,053-667-3900,35.85787034,128.5707285,2019-09-16
"대구광역시 달서구청",대구광역시 달서구 파도고개로 182(두류동),대구광역시 달서구 두류동 1282-30,생활방범,1,200,회전,30,2013-01,053-667-3900,35.85664776,128.5662467,2019-09-16
"대구광역시 달서구청",대구광역시 달서구 학산로19길 80(본동),대구광역시 달서구 본동 887-2,생활방범,1,200,회전,30,2014-01,053-667-3900,35.83582144,128.5361126,2019-09-16
"대구광역시 달서구청",대구광역시 달서구 월배로66길 24(송현동),대구광역시 달서구 송현동 1947-29,생활방범,1,200,회전,30,2014-01,053-667-3900,35.82407667,128.5481632,2019-09-16
"대구광역시 달서구청",대구광역시 달서구 월배로65안길 15(송현동),대구광역시 달서구 송현동 1916-21,생활방범,1,200,회전,30,2014-01,053-667-3900,35.82588847,128.5461614,2019-09-16
"대구광역시 달서구청",대구광역시 달서구 앞산순환로61길 82(송현동),대구광역시 달서구 송현동 288-1,생활방범,1,200,회전,30,2014-01,053-667-3900,35.83134867,128.558282,2019-09-16
"대구광역시 달서구청",대구광역시 달서구 상화북로5길 36(진천동),대구광역시 달서구 진천동 261-1,생활방범,1,200,회전,30,2014-01,053-667-3900,35.81202486,128.5283059,2019-09-16
"대구광역시 달서구청",대구광역시 달서구 진천로7길 52-8(진천동),대구광역시 달서구 진천동 492-20,생활방범,1,200,회전,30,2014-01,053-667-3900,35.81161614,128.5228478,2019-09-16
"대구광역시 달서구청",대구광역시 달서구 월배로40길 135(상인동),대구광역시 달서구 상인동 565-9,생활방범,1,200,회전,30,2014-01,053-667-3900,35.81367582,128.540102,2019-09-16
"대구광역시 달서구청",대구광역시 달서구 당산로24길 50(성당동),대구광역시 달서구 성당동 711-6,생활방범,1,200,회전,30,2014-01,053-667-3900,35.84618814,128.5477622,2019-09-16
"대구광역시 달서구청",대구광역시 달서구 구마로53길 10(성당동),대구광역시 달서구 성당동 220-6,생활방범,1,200,회전,30,2014-01,053-667-3900,35.83814998,128.557171,2019-09-16
"대구광역시 달서구청",대구광역시 달서구 두류공원로28길 31(성당동),대구광역시 달서구 성당동 81-5,생활방범,1,200,회전,30,2014-01,053-667-3900,35.8487794,128.5679407,2019-09-16
"대구광역시 달서구청",대구광역시 달서구 당산로38길 23(두류동),대구광역시 달서구 두류동 495-39,생활방범,1,200,회전,30,2014-01,053-667-3900,35.85360592,128.5497619,2019-09-16
"대구광역시 달서구청",대구광역시 달서구 야외음악당로39서길 25(두류동),대구광역시 달서구 두류동 628-15,생활방범,1,200,회전,30,2014-01,053-667-3900,35.85360251,128.5524633,2019-09-16
"대구광역시 달서구청",대구광역시 달서구 달구벌대로304길 39(죽전동),대구광역시 달서구 감삼동 576-3,생활방범,1,200,회전,30,2014-01,053-667-3900,35.8480197,128.5327044,2019-09-16
"대구광역시 달서구청",대구광역시 달서구 감삼4길 19(감삼동),대구광역시 달서구 감삼동 136-9,생활방범,1,200,회전,30,2014-01,053-667-3900,35.85088179,128.5423144,2019-09-16
"대구광역시 달서구청",대구광역시 달서구 와룡로28길 75(감삼동),대구광역시 달서구 감삼동 287-25,생활방범,1,200,회전,30,2014-01,053-667-3900,35.84487337,128.5415538,2019-09-16
"대구광역시 달서구청",대구광역시 달서구 두류2길 23(두류동),대구광역시 달서구 두류동 1207-104,생활방범,1,200,회전,30,2014-01,053-667-3900,35.85935814,128.5724886,2019-09-16
"대구광역시 달서구청",대구광역시 달서구 두류남4길 7(두류동),대구광역시 달서구 두류동 804-44,생활방범,1,200,회전,30,2014-01,053-667-3900,35.8578097,128.5723002,2019-09-16
"대구광역시 달서구청",대구광역시 달서구 파도고개로135-6(두류동),대구광역시 달서구 두류동 828-25,생활방범,1,200,회전,30,2014-01,053-667-3900,35.85526978,128.5679309,2019-09-16
"대구광역시 달서구청",대구광역시 달서구 야외음악당로47길 148(두류동),대구광역시 달서구 두류동 103-12,생활방범,1,200,회전,30,2014-01,053-667-3900,35.85891207,128.5639156,2019-09-16
"대구광역시 달서구청",대구광역시 달서구 대명천로42길 5(본리동),,생활방범,1,200,회전,30,2014-01,053-667-3900,35.8419008,128.5379243,2019-09-16
"대구광역시 달서구청",대구광역시 달서구 장기로22길 14(성당동),대구광역시 달서구 성당동 666-1,생활방범,1,200,회전,30,2014-01,053-667-3900,35.84446068,128.5490565,2019-09-16
"대구광역시 달서구청",대구광역시 달서구 성서동로61길 6-21(장기동),대구광역시 달서구 장기동 180-19,생활방범,1,200,회전,30,2014-01,053-667-3900,35.84872211,128.5149549,2019-09-16
"대구광역시 달서구청",대구광역시 달서구 월곡로 113-13 (도원동),대구광역시 달서구 도원동 607,어린이보호,1,200,회전,30,2014-01,053-667-3900,35.80686585,128.5491179,2019-09-16
"대구광역시 달서구청",대구광역시 달서구 조암남로14길 54 (월성동),대구광역시 달서구 월성동 1177-6,어린이보호,1,200,회전,30,2014-01,053-667-3900,35.82321391,128.5254584,2019-09-16
"대구광역시 달서구청",대구광역시 달서구 상화북로 7 (진천동),대구광역시 달서구 진천동 289-7,어린이보호,1,200,회전,30,2014-01,053-667-3900,35.80997304,128.5276025,2019-09-16
"대구광역시 달서구청",대구광역시 달서구 조암로 89-23 (월성동),대구광역시 달서구 월성동 1482,어린이보호,1,200,회전,30,2014-01,053-667-3900,35.82250939,128.5217039,2019-09-16
"대구광역시 달서구청",대구광역시 달서구 성서서로 89 (월성동),대구광역시 달서구 월암동 1-40,어린이보호,1,200,회전,30,2014-01,053-667-3900,35.83300438,128.4997002,2019-09-16
"대구광역시 달서구청",대구광역시 달서구 중흥로9길 40 (송현동),대구광역시 달서구 송현동 278,어린이보호,1,200,회전,30,2014-01,053-667-3900,35.83093211,128.5587253,2019-09-16
"대구광역시 달서구청",대구광역시 달서구 조암남로27길 13 (월성동),대구광역시 달서구 대천동 486-9,어린이보호,1,200,회전,30,2014-01,053-667-3900,35.81740638,128.5199312,2019-09-16
"대구광역시 달서구청",대구광역시 달서구 상화로9길 9 (진천동),대구광역시 달서구 진천동 728-1,어린이보호,1,200,회전,30,2014-01,053-667-3900,35.80860313,128.5193058,2019-09-16
"대구광역시 달서구청",대구광역시 달서구 월배로 235 (상인동),대구광역시 달서구 상인동 745,어린이보호,1,200,회전,30,2014-01,053-667-3900,35.8200267,128.5388941,2019-09-16
"대구광역시 달서구청",대구광역시 달서구 구마로12길 73 (본동),대구광역시 달서구 본동 616-2,어린이보호,1,200,회전,30,2014-01,053-667-3900,35.83385667,128.5340627,2019-09-16
"대구광역시 달서구청",대구광역시 달서구 상원로1길 3,,다목적,1,200,회전,30,2014-01,053-667-3900,35.8104167,128.5354718,2019-09-16
"대구광역시 달서구청",대구광역시 달서구 월배로46길 42,,다목적,1,200,회전,30,2014-01,053-667-3900,35.8167874,128.5374522,2019-09-16
"대구광역시 달서구청",대구광역시 달서구 월배로 95-14,,다목적,1,200,회전,30,2014-01,053-667-3900,35.8149277,128.5246563,2019-09-16
"대구광역시 달서구청",대구광역시 달서구 미리샘길 56,,다목적,1,200,회전,30,2014-01,053-667-3900,35.8063388,128.5461584,2019-09-16
"대구광역시 달서구청",대구광역시 달서구 월배로28길 80,,다목적,1,200,회전,30,2014-01,053-667-3900,35.813494,128.5321749,2019-09-16
"대구광역시 달서구청",대구광역시 달서구 한실로 134,,다목적,1,200,회전,30,2014-01,053-667-3900,35.8057682,128.5411787,2019-09-16
"대구광역시 달서구청",대구광역시 달서구 월곡로51길 77,,다목적,1,200,회전,30,2014-01,053-667-3900,35.8147496,128.5362235,2019-09-16
"대구광역시 달서구청",대구광역시 달서구 상화북로43길 50,,다목적,1,200,회전,30,2014-01,053-667-3900,35.8166987,128.5469431,2019-09-16
"대구광역시 달서구청",대구광역시 달서구 앞산순환로 255,,다목적,1,200,회전,30,2014-01,053-667-3900,35.826171,128.5559197,2019-09-16
"대구광역시 달서구청",대구광역시 달서구 구마로12길 63,,다목적,1,200,회전,30,2014-01,053-667-3900,35.8342357,128.5341353,2019-09-16
"대구광역시 달서구청",대구광역시 달서구 구마로12길 60,,다목적,1,200,회전,30,2014-01,053-667-3900,35.8352704,128.5331217,2019-09-16
"대구광역시 달서구청",대구광역시 달서구 학산로2길 38,,다목적,1,200,회전,30,2014-01,053-667-3900,35.8241222,128.5328413,2019-09-16
"대구광역시 달서구청",대구광역시 달서구 상화로35안길 23-10,,다목적,1,200,회전,30,2014-01,053-667-3900,35.8109212,128.531859,2019-09-16
"대구광역시 달서구청",대구광역시 달서구 월배로28안길 17-10,,다목적,1,200,회전,30,2014-01,053-667-3900,35.8140157,128.529361,2019-09-16
"대구광역시 달서구청",대구광역시 달서구 앞산순환로45길 18,,다목적,1,200,회전,30,2014-01,053-667-3900,35.8244607,128.5528985,2019-09-16
"대구광역시 달서구청",대구광역시 달서구 한실로 135,,다목적,1,200,회전,30,2014-01,053-667-3900,35.8074717,128.5409723,2019-09-16
"대구광역시 달서구청",대구광역시 달서구 상화로57길 56,,다목적,1,200,회전,30,2014-01,053-667-3900,35.8106927,128.544057,2019-09-16
"대구광역시 달서구청",대구광역시 달서구 도원남로 19,,다목적,1,200,회전,30,2014-01,053-667-3900,35.8059641,128.532419,2019-09-16
"대구광역시 달서구청",대구광역시 달서구 한실로 117,,다목적,1,200,회전,30,2014-01,053-667-3900,35.8082468,128.5381737,2019-09-16
"대구광역시 달서구청",대구광역시 달서구 중흥로8길 50,,다목적,1,200,회전,30,2014-01,053-667-3900,35.8291194,128.5541151,2019-09-16
"대구광역시 달서구청",대구광역시 달서구 월곡로94길 30,,다목적,1,200,회전,30,2014-01,053-667-3900,35.8328391,128.5270764,2019-09-16
"대구광역시 달서구청",대구광역시 달서구 월곡로20길 15-16,,다목적,1,200,회전,30,2014-01,053-667-3900,35.8067269,128.5513715,2019-09-16
"대구광역시 달서구청",대구광역시 달서구 월곡로26안길 27 (상인동),대구광역시 달서구 상인동 1581,다목적,1,200,회전,30,2014-01,053-667-3900,35.80967377,128.5500446,2019-09-16
"대구광역시 달서구청",대구광역시 달서구 상화북로 195,,다목적,1,200,회전,30,2014-01,053-667-3900,35.8144852,128.5467044,2019-09-16
"대구광역시 달서구청",대구광역시 달서구 한실로 49,,다목적,1,200,회전,30,2014-01,053-667-3900,35.8085421,128.5335958,2019-09-16
"대구광역시 달서구청",대구광역시 달서구 월성로 77,,다목적,1,200,고정,30,2012-01,053-667-3900,35.8295771,128.5287383,2019-09-16
"대구광역시 달서구청",대구광역시 달서구 한실로 29,,다목적,1,200,회전,30,2014-01,053-667-3900,35.8085412,128.5297385,2019-09-16
"대구광역시 달서구청",대구광역시 달서구 도원남로 40,,다목적,1,200,회전,30,2014-01,053-667-3900,35.8034567,128.5340243,2019-09-16
"대구광역시 달서구청",대구광역시 달서구 화암로73길 8-21,,다목적,1,200,회전,30,2014-01,053-667-3900,35.8072551,128.5191741,2019-09-16
"대구광역시 달서구청",대구광역시 달서구 상인로26길 79-10,,다목적,1,200,회전,30,2014-01,053-667-3900,35.8162216,128.5485787,2019-09-16
"대구광역시 달서구청",대구광역시 달서구 상인서로 94,,다목적,1,200,회전,30,2014-01,053-667-3900,35.8185393,128.5417335,2019-09-16
"대구광역시 달서구청",대구광역시 달서구 구마로12길 89,,다목적,1,200,회전,30,2014-01,053-667-3900,35.8328494,128.5351498,2019-09-16
"대구광역시 달서구청",대구광역시 달서구 상인로 68-4 (상인동),대구광역시 달서구 상인동 1559,다목적,1,200,회전,30,2014-01,053-667-3900,35.81277938,128.5489485,2019-09-16
"대구광역시 달서구청",대구광역시 달서구 도원로 45,,다목적,1,200,회전,30,2014-01,053-667-3900,35.8054156,128.537411,2019-09-16
"대구광역시 달서구청",대구광역시 달서구 도원로 46,,다목적,1,200,회전,30,2014-01,053-667-3900,35.8056814,128.5339949,2019-09-16
"대구광역시 달서구청",대구광역시 달서구 상인서로 65,,다목적,1,200,회전,30,2014-01,053-667-3900,35.8154748,128.5425316,2019-09-16
"대구광역시 달서구청",대구광역시 달서구 학산로7길 5,,다목적,1,200,회전,30,2014-01,053-667-3900,35.8287845,128.5318819,2019-09-16
"대구광역시 달서구청",대구광역시 달서구 상인서로 3,,다목적,1,200,회전,30,2014-01,053-667-3900,35.8116189,128.5463262,2019-09-16
"대구광역시 달서구청",대구광역시 달서구 송현로4길 29-1,,다목적,1,200,회전,30,2014-01,053-667-3900,35.8226775,128.5502279,2019-09-16
"대구광역시 달서구청",대구광역시 달서구 한실로 30,,다목적,1,200,회전,30,2014-01,053-667-3900,35.8065976,128.5300100,2019-09-16
"대구광역시 달서구청",대구광역시 달서구 상인로 139 (상인동),대구광역시 달서구 상인동 1517,다목적,1,200,회전,30,2014-01,053-667-3900,35.8184141,128.5433284,2019-09-16
"대구광역시 달서구청",대구광역시 달서구 상인서로 39,,다목적,1,200,회전,30,2014-01,053-667-3900,35.813643,128.5444003,2019-09-16
"대구광역시 달서구청",대구광역시 달서구 구마로14남길 55,,다목적,1,200,회전,30,2014-01,053-667-3900,35.8333049,128.5324455,2019-09-16
"대구광역시 달서구청",대구광역시 달서구 성서동로65길 49 (이곡동),대구광역시 달서구 이곡동 742-2,어린이보호,1,200,회전,30,2014-01,053-667-3900,35.8502329,128.5131193,2019-09-16
"대구광역시 달서구청",대구광역시 달서구 와룡로43길 77-9 (용산동),대구광역시 달서구 용산동 901-3,어린이보호,1,200,회전,30,2014-01,053-667-3900,35.85160037,128.5328203,2019-09-16
"대구광역시 달서구청",대구광역시 달서구 감삼남2길 108 (감삼동),대구광역시 달서구 감삼동 295-10,어린이보호,1,200,회전,30,2014-01,053-667-3900,35.845311,128.5423983,2019-09-16
"대구광역시 달서구청",대구광역시 달서구 성서공단로 11길 98-2 (신당동),대구광역시 달서구 호산동 716-22,어린이보호,1,200,회전,30,2014-01,053-667-3900,35.84384045,128.4882666,2019-09-16
"대구광역시 달서구청",대구광역시 달서구 달구벌대로304길 60 (감삼동),대구광역시 달서구 감삼동 582,어린이보호,1,200,회전,30,2014-01,053-667-3900,35.84697979,128.5320918,2019-09-16
"대구광역시 달서구청",대구광역시 달서구 당산동3길 8 (성당동),대구광역시 달서구 성당동 700-6,어린이보호,1,200,회전,30,2014-01,053-667-3900,35.84597723,128.5465762,2019-09-16
"대구광역시 달서구청",대구광역시 달서구 성서서로73길 49 (신당동),대구광역시 달서구 신당동 500-2,어린이보호,1,200,회전,30,2014-01,053-667-3900,35.85762135,128.4971425,2019-09-16
"대구광역시 달서구청",대구광역시 달서구 용산로14길 39 (장기동),대구광역시 달서구 장기동 554-3,어린이보호,1,200,회전,30,2014-01,053-667-3900,35.84313621,128.5329738,2019-09-16
"대구광역시 달서구청",대구광역시 달서구 이곡서로 43 (이곡동),대구광역시 달서구 이곡동 1204,어린이보호,1,200,회전,30,2014-01,053-667-3900,35.85396738,128.5023232,2019-09-16
"대구광역시 달서구청",대구광역시 달서구 평리로 106 (죽전동),대구광역시 달서구 죽전동 365,어린이보호,1,200,회전,30,2014-01,053-667-3900,35.85854434,128.5360224,2019-09-16
"대구광역시 달서구청",대구광역시 달서구 성지로16길 65 (용산동),대구광역시 달서구 용산동 534,어린이보호,1,200,회전,30,2014-01,053-667-3900,35.8579178,128.5228004,2019-09-16
"대구광역시 달서구청",대구광역시 달서구 성서로72길 117 (장기동),대구광역시 달서구 이곡동 1000-340,어린이보호,1,200,회전,30,2014-01,053-667-3900,35.8495006,128.514041,2019-09-16
"대구광역시 달서구청",대구광역시 달서구 구마로9길 42,,다목적,1,200,회전,30,2014-01,053-667-3900,35.8394039,128.5323036,2019-09-16
"대구광역시 달서구청",대구광역시 달서구 본리서5길 34,,다목적,1,200,회전,30,2014-01,053-667-3900,35.8384026,128.5292252,2019-09-16
"대구광역시 달서구청",대구광역시 달서구 선원로37남길 13,,다목적,1,200,회전,30,2014-01,053-667-3900,35.8595534,128.5133588,2019-09-16
"대구광역시 달서구청",대구광역시 달서구 명덕로2길 57(두류동),대구광역시 달서구 두류동 1213,다목적,1,200,회전,30,2014-01,053-667-3900,35.85950078,128.5709285,2019-09-16
"대구광역시 달서구청",대구광역시 달서구 야외음악당로39안길 61,,다목적,1,200,회전,30,2014-01,053-667-3900,35.8518415,128.552225,2019-09-16
"대구광역시 달서구청",대구광역시 달서구 서당로9길 40-28,,다목적,1,200,회전,30,2014-01,053-667-3900,35.85741103,128.4935096,2019-09-16
"대구광역시 달서구청",대구광역시 달서구 이곡공원로1길 7(이곡동),대구광역시 달서구 이곡동 1240,다목적,1,200,회전,30,2014-01,053-667-3900,35.8557268,128.508302,2019-09-16
"대구광역시 달서구청",대구광역시 달서구 장기로 127,,다목적,1,200,회전,30,2014-01,053-667-3900,35.8422912,128.5458823,2019-09-16
"대구광역시 달서구청",대구광역시 달서구 와룡로51길 72-7,,다목적,1,200,회전,30,2014-01,053-667-3900,35.8559233,128.5331215,2019-09-16
"대구광역시 달서구청",대구광역시 달서구 선원로57길 17,,다목적,1,200,회전,30,2014-01,053-667-3900,35.8600804,128.5236582,2019-09-16
"대구광역시 달서구청",대구광역시 달서구 이곡공원로 33,,다목적,1,200,회전,30,2014-01,053-667-3900,35.8563952,128.5114352,2019-09-16
"대구광역시 달서구청",대구광역시 달서구 새방로 23-16(용산동),대구광역시 달서구 용산동 517,다목적,1,200,회전,30,2014-01,053-667-3900,35.8614499,128.5210067,2019-09-16
"대구광역시 달서구청",대구광역시 달서구 용산큰못3길 23,,다목적,1,200,회전,30,2014-01,053-667-3900,35.8600795,128.5263366,2019-09-16
"대구광역시 달서구청",대구광역시 달서구 호산동로35길 42-10,,다목적,1,200,회전,30,2014-01,053-667-3900,35.8512713,128.483542,2019-09-16
"대구광역시 달서구청",대구광역시 달서구 새동네로 34,,다목적,1,200,회전,30,2014-01,053-667-3900,35.8517496,128.5192581,2019-09-16
"대구광역시 달서구청",대구광역시 달서구 서당로 14,,다목적,1,200,회전,30,2014-01,053-667-3900,35.8533103,128.4963241,2019-09-16
"대구광역시 달서구청",대구광역시 달서구 용산큰못길 30,,다목적,1,200,회전,30,2014-01,053-667-3900,35.859653,128.5282149,2019-09-16
"대구광역시 달서구청",대구광역시 달서구 호산동로36길 19-6,,다목적,1,200,회전,30,2014-01,053-667-3900,35.8510372,128.4870601,2019-09-16
"대구광역시 달서구청",대구광역시 달서구 선원남로 151,,다목적,1,200,회전,30,2014-01,053-667-3900,35.8580055,128.516574,2019-09-16
"대구광역시 달서구청",대구광역시 달서구 계대동문로 123,,다목적,1,200,회전,30,2014-01,053-667-3900,35.856222,128.5059314,2019-09-16
"대구광역시 달서구청",대구광역시 달서구 선원로11길 28-15,,다목적,1,200,회전,30,2014-01,053-667-3900,35.8606748,128.4996241,2019-09-16
"대구광역시 달서구청",대구광역시 달서구 와룡로45길 56-5,,다목적,1,200,회전,30,2014-01,053-667-3900,35.8534729,128.533869,2019-09-16
"대구광역시 달서구청",대구광역시 달서구 선원로 100,,다목적,1,200,회전,30,2014-01,053-667-3900,35.8583974,128.5032348,2019-09-16
"대구광역시 달서구청",대구광역시 달서구 이곡공원로 83,,다목적,1,200,회전,30,2014-01,053-667-3900,35.8561377,128.5166383,2019-09-16
"대구광역시 달서구청",대구광역시 달서구 성지로 12,,다목적,1,200,회전,30,2014-01,053-667-3900,35.8530823,128.5168255,2019-09-16
"대구광역시 달서구청",대구광역시 달서구 성서서로75길 17-7(신당동),대구광역시 달서구 신당동 1759-1,다목적,1,200,회전,30,2014-01,053-667-3900,35.85842521,128.498908,2019-09-16
"대구광역시 달서구청",대구광역시 달서구 선원로33안길 98,,다목적,1,200,회전,30,2014-01,053-667-3900,35.8615835,128.5141071,2019-09-16
"대구광역시 달서구청",대구광역시 달서구 감삼길 142,,다목적,1,200,회전,30,2014-01,053-667-3900,35.8495563,128.5455767,2019-09-16
"대구광역시 달서구청",대구광역시 달서구 선원로23북길 11,,다목적,1,200,회전,30,2014-01,053-667-3900,35.8604076,128.5046947,2019-09-16
"대구광역시 달서구청",대구광역시 달서구 달구벌대로245길 17-12(이곡동),대구광역시 달서구 이곡동 1216,다목적,1,200,회전,30,2014-01,053-667-3900,35.85292679,128.503311,2019-09-16
"대구광역시 달서구청",대구광역시 달서구 달구벌대로301길 109,,다목적,1,200,회전,30,2014-01,053-667-3900,35.8546781,128.5315953,2019-09-16
"대구광역시 달서구청",대구광역시 달서구 용산로 259,,다목적,1,200,회전,30,2014-01,053-667-3900,35.8608583,128.5289836,2019-09-16
"대구광역시 달서구청",대구광역시 달서구 성지로 27,,다목적,1,200,회전,30,2014-01,053-667-3900,35.8539475,128.5185284,2019-09-16
"대구광역시 달서구청",대구광역시 달서구 장산2길 47,,다목적,1,200,회전,30,2014-01,053-667-3900,35.8566355,128.5251148,2019-09-16
"대구광역시 달서구청",대구광역시 달서구 한들로 55,,다목적,1,200,회전,30,2014-01,053-667-3900,35.8457471,128.529108,2019-09-16
"대구광역시 달서구청",대구광역시 달서구 한들로 70,,다목적,1,200,회전,30,2014-01,053-667-3900,35.8454555,128.5269595,2019-09-16
"대구광역시 달서구청",대구광역시 달서구 장기로 160,,다목적,1,200,회전,30,2014-01,053-667-3900,35.8441523,128.5431308,2019-09-16
"대구광역시 달서구청",대구광역시 달서구 미리샘길 22 (도원동),대구광역시 달서구 도원동 1444-4,어린이보호,1,200,회전,30,2014-01,053-667-3900,35.80655888,128.5433376,2019-09-16
"대구광역시 달서구청",대구광역시 달서구 월배로85길 106 (송현동),대구광역시 달서구 송현동 500-54,어린이보호,1,200,회전,30,2014-01,053-667-3900,35.83336474,128.5472089,2019-09-16
"대구광역시 달서구청",대구광역시 달서구 상인서로 60 (상인동),대구광역시 달서구 상인동 1519,어린이보호,1,200,회전,30,2014-01,053-667-3900,35.81635648,128.543319,2019-09-16
"대구광역시 달서구청",대구광역시 달서구 송현로 192 (본동),대구광역시 달서구 본동 275-1,어린이보호,1,200,회전,30,2014-01,053-667-3900,35.83490543,128.5453558,2019-09-16
"대구광역시 달서구청",대구광역시 달서구 송현로 136 (송현동),대구광역시 달서구 송현동 1900-4,어린이보호,1,200,회전,30,2014-01,053-667-3900,35.82937475,128.5446118,2019-09-16
"대구광역시 달서구청",대구광역시 달서구 월배로68길 91(송현동),대구광역시 달서구 송현동 1961,어린이보호,1,200,회전,30,2014-01,053-667-3900,35.8243491,128.5518829,2019-09-16
"대구광역시 달서구청",대구광역시 달서구 도원남로 5,,어린이보호,1,200,회전,30,2014-01,053-667-3900,35.8063326,128.5324713,2019-09-16
"대구광역시 달서구청",대구광역시 달서구 월곡로20길 15-16,,어린이보호,1,200,회전,30,2014-01,053-667-3900,35.8067269,128.5513715,2019-09-16
"대구광역시 달서구청",대구광역시 달서구 장기로36안길 9(감삼동),대구광역시 달서구 감삼동 319-3,어린이보호,1,200,회전,30,2014-01,053-667-3900,35.8439862,128.5409821,2019-09-16
"대구광역시 달서구청",대구광역시 달서구 성서동로 355-19(이곡동),대구광역시 달서구 이곡동 1258-4,어린이보호,1,200,회전,30,2014-01,053-667-3900,35.8522566,128.5130604,2019-09-16
"대구광역시 달서구청",대구광역시 달서구 달서대로109길 86,,어린이보호,1,200,회전,30,2014-01,053-667-3900,35.8491031,128.4818683,2019-09-16
"대구광역시 달서구청",대구광역시 달서구 구마로39길 83-16(성당동),대구광역시 달서구 성당동 836,어린이보호,1,200,회전,30,2014-01,053-667-3900,35.84121589,128.5471048,2019-09-16
"대구광역시 달서구청",대구광역시 달서구 이곡공원로 33,,어린이보호,1,200,회전,30,2014-01,053-667-3900,35.8563952,128.5114352,2019-09-16
"대구광역시 달서구청",대구광역시 달서구 와룡로49길 80(용산동),대구광역시 달서구 용산동 954-15,어린이보호,1,200,회전,30,2014-01,053-667-3900,35.85547064,128.5322549,2019-09-16
"대구광역시 달서구청",대구광역시 달서구 성당로45길 21,,어린이보호,1,200,회전,30,2014-01,053-667-3900,35.8523938,128.5726817,2019-09-16
"대구광역시 달서구청",대구광역시 달서구 명덕로22-9(두류동),대구광역시 달서구 두류동 1214-1,어린이보호,1,200,회전,30,2014-01,053-667-3900,35.8605408,128.5725022,2019-09-16
"대구광역시 달서구청",대구광역시 달서구 두류공원로 257(두류동),대구광역시 달서구 두류동 487-22,어린이보호,1,200,회전,30,2014-01,053-667-3900,35.8564345,128.5567464,2019-09-16
"대구광역시 달서구청",대구광역시 달서구 학산로7길 27,,다목적,1,200,회전,30,2014-01,053-667-3900,35.8305655,128.5302689,2019-09-16
"대구광역시 달서구청",대구광역시 달서구 학산로 30,,다목적,1,200,회전,30,2014-01,053-667-3900,35.8276817,128.5336276,2019-09-16
"대구광역시 달서구청",대구광역시 달서구 상화로 380,,다목적,1,200,회전,30,2014-01,053-667-3900,35.807634,128.5561788,2019-09-16
"대구광역시 달서구청",대구광역시 달서구 성서공단로 362,,다목적,1,200,회전,30,2014-01,053-667-3900,35.8361163,128.5221348,2019-09-16
"대구광역시 달서구청",대구광역시 달서구 미리샘길 26 (도원동),대구광역시 달서구 도원동 1454,다목적,1,200,회전,30,2014-01,053-667-3900,35.8062601,128.543623,2019-09-16
"대구광역시 달서구청",대구광역시 달서구 학산로7길 26,,다목적,1,200,회전,30,2014-01,053-667-3900,35.8311044,128.5319184,2019-09-16
"대구광역시 달서구청",대구광역시 달서구 성서4차첨단로 90,,다목적,1,200,회전,30,2014-01,053-667-3900,35.8227486,128.5125219,2019-09-16
"대구광역시 달서구청",대구광역시 달서구 본리서4길 17 (본리동),대구광역시 달서구 본리동 1205,다목적,1,200,회전,30,2014-01,053-667-3900,35.84084535,128.5292391,2019-09-16
"대구광역시 달서구청",대구광역시 달서구 선원남로 129,,다목적,1,200,회전,30,2014-01,053-667-3900,35.8574197,128.5144743,2019-09-16
"대구광역시 달서구청",대구광역시 달서구 선원남로 5 (이곡2동),대구광역시 달서구 이곡동 1189,다목적,1,200,회전,30,2014-01,053-667-3900,35.8577968,128.500721,2019-09-16
"대구광역시 달서구청",대구광역시 달서구 선원남로 5 (이곡2동),대구광역시 달서구 이곡동 1189,생활방범,1,200,회전,30,2018-01,053-667-3900,35.8577968,128.500721,2019-09-16
"대구광역시 달서구청",대구광역시 달서구 이곡공원로 54,,다목적,1,200,회전,30,2014-01,053-667-3900,35.8545125,128.5135034,2019-09-16
"대구광역시 달서구청",대구광역시 달서구 달서대로109길 70 (신당동),대구광역시 달서구 호산동 357-60,다목적,1,200,회전,30,2014-01,053-667-3900,35.8491311,128.4843272,2019-09-16
"대구광역시 달서구청",대구광역시 달서구 두류남8길 6,,다목적,1,200,회전,30,2014-01,053-667-3900,35.8574255,128.5710394,2019-09-16
"대구광역시 달서구청",대구광역시 달서구 성당로33안길 23(성당동),대구광역시 달서구 성당동 84-4,다목적,1,200,회전,30,2014-01,053-667-3900,35.85117961,128.5694405,2019-09-16
"대구광역시 달서구청",대구광역시 달서구 당산동길 15(성당동),대구광역시 달서구 성당동 707-1,생활방범,1,200,회전,30,2014-01,053-667-3900,35.84536058,128.5454206,2019-09-16
"대구광역시 달서구청",대구광역시 달서구 당산동2길 12(성당동),대구광역시 달서구 성당동 706-1,생활방범,1,200,회전,30,2014-01,053-667-3900,35.84566687,128.545456,2019-09-16
"대구광역시 달서구청",대구광역시 달서구 달구벌대로203길 42(호산동),대구광역시 달서구 호산동 120,생활방범,1,200,회전,30,2014-01,053-667-3900,35.85498441,128.4784592,2019-09-16
"대구광역시 달서구청",대구광역시 달서구 학산남로 50,,생활방범,1,200,회전,30,2014-01,053-667-3900,35.8233881,128.5392188,2019-09-16
"대구광역시 달서구청",대구광역시 달서구 월배로5길 11-2(진천동),대구광역시 달서구 유천동 403-4,어린이보호,1,200,회전,30,2014-01,053-667-3900,35.81230149,128.5163725,2019-09-16
"대구광역시 달서구청",대구광역시 달서구 월곡로 410(월성동),대구광역시 달서구 월성동 87,다목적,1,200,회전,30,2014-01,053-667-3900,35.8281201,128.5288887,2019-09-16
"대구광역시 달서구청",대구광역시 달서구 선원남로 5,,다목적,1,200,회전,30,2014-01,053-667-3900,35.8577968,128.500721,2019-09-16
"대구광역시 달서구청",대구광역시 달서구 계대동문로 77,,다목적,1,200,회전,30,2014-01,053-667-3900,35.8558089,128.5008392,2019-09-16
"대구광역시 달서구청",대구광역시 달서구 비슬로540길 47(대곡동),대구광역시 달서구 대곡동 20-6,생활방범,1,200,회전,30,2014-01,053-667-3900,35.8066619,128.5117081,2019-09-16
"대구광역시 달서구청",대구광역시 달서구 상인로 24(상인동),대구광역시 달서구 상인동 1562,생활방범,1,200,회전,30,2015-01,053-667-3900,35.8105786,128.5512459,2019-09-16
"대구광역시 달서구청",대구광역시 달서구 달구벌대로378길 12(두류동),대구광역시 달서구 두류동 857-11,생활방범,1,200,회전,30,2014-01,053-667-3900,35.86112459,128.5706301,2019-09-16
"대구광역시 달서구청",대구광역시 달서구 명덕로 7(두류동),대구광역시 달서구 두류동 1198,생활방범,1,200,회전,30,2014-01,053-667-3900,35.86156478,128.5728256,2019-09-16
"대구광역시 달서구청",대구광역시 달서구 두류길 17(두류동),대구광역시 달서구 두류동 1202-28,생활방범,1,200,회전,30,2014-01,053-667-3900,35.8597957,128.5733443,2019-09-16
"대구광역시 달서구청",대구광역시 달서구 당산로 37-25,,다목적,1,200,회전,30,2015-01,053-667-3900,35.8405655,128.5418345,2019-09-16
"대구광역시 달서구청",대구광역시 달서구 본리서4길 17 (본리동),대구광역시 달서구 본리동 1205,다목적,1,200,회전,30,2015-01,053-667-3900,35.84084535,128.5292391,2019-09-16
"대구광역시 달서구청",대구광역시 달서구 한들로 70,,다목적,1,200,회전,30,2015-01,053-667-3900,35.8454555,128.5269595,2019-09-16
"대구광역시 달서구청",대구광역시 달서구 새방로3길 17,,다목적,1,200,회전,30,2015-01,053-667-3900,35.8603276,128.5196495,2019-09-16
"대구광역시 달서구청",대구광역시 달서구 선원로33길 17-30,,다목적,1,200,회전,30,2015-01,053-667-3900,35.8608054,128.5090984,2019-09-16
"대구광역시 달서구청",대구광역시 달서구 이곡공원로 49,,다목적,1,200,회전,30,2015-01,053-667-3900,35.8558526,128.5135475,2019-09-16
"대구광역시 달서구청",대구광역시 달서구 선원로23길 152,,다목적,1,200,회전,30,2015-01,053-667-3900,35.8604846,128.5011365,2019-09-16
"대구광역시 달서구청",대구광역시 달서구 달서대로85길 31,,다목적,1,200,회전,30,2015-01,053-667-3900,35.837057,128.4883195,2019-09-16
"대구광역시 달서구청",대구광역시 달서구 호산동로1길 71,,다목적,1,200,회전,30,2015-01,053-667-3900,35.8387084,128.4797687,2019-09-16
"대구광역시 달서구청",대구광역시 달서구 달서대로95길 26,,다목적,1,200,회전,30,2015-01,053-667-3900,35.842202,128.4889377,2019-09-16
"대구광역시 달서구청",대구광역시 달서구 호산로 126,,다목적,1,200,회전,30,2015-01,053-667-3900,35.8511268,128.480025,2019-09-16
"대구광역시 달서구청",대구광역시 달서구 달서대로109길 70(신당동),대구광역시 달서구 호산동 357-60,다목적,1,200,회전,30,2015-01,053-667-3900,35.8491311,128.4843272,2019-09-16
"대구광역시 달서구청",대구광역시 달서구 조암로14안길 18-4,,다목적,1,200,회전,30,2015-01,053-667-3900,35.8244688,128.5205932,2019-09-16
"대구광역시 달서구청",대구광역시 달서구 조암로 29,,다목적,1,200,회전,30,2015-01,053-667-3900,35.8246458,128.5269174,2019-09-16
"대구광역시 달서구청",대구광역시 달서구 조암로 29,,다목적,1,200,회전,30,2015-01,053-667-3900,35.8246458,128.5269174,2019-09-16
"대구광역시 달서구청",대구광역시 달서구 월곡로100길 25,,다목적,1,200,회전,30,2015-01,053-667-3900,35.83652669,128.5242917,2019-09-16
"대구광역시 달서구청",대구광역시 달서구 성서공단로 40,,다목적,1,200,회전,30,2015-01,053-667-3900,35.8338158,128.4867788,2019-09-16
"대구광역시 달서구청",대구광역시 달서구 성서공단로 40,,다목적,1,200,회전,30,2015-01,053-667-3900,35.8338158,128.4867788,2019-09-16
"대구광역시 달서구청",대구광역시 달서구 월배로11길 33,,다목적,1,200,회전,30,2015-01,053-667-3900,35.8147896,128.5184275,2019-09-16
"대구광역시 달서구청",대구광역시 달서구 상화로58길 56,,다목적,1,200,회전,30,2015-01,053-667-3900,35.8059992,128.5471021,2019-09-16
"대구광역시 달서구청",대구광역시 달서구 두류공원로 255-1(두류동),대구광역시 달서구 두류동 473-16,어린이보호,1,200,회전,30,2015-01,053-667-3900,35.8562615,128.5583019,2019-09-16
"대구광역시 달서구청",대구광역시 달서구 야외음악당로41길 21(두류동),대구광역시 달서구 두류동 485-4,어린이보호,1,200,회전,30,2015-01,053-667-3900,35.85501416,128.557101,2019-09-16
"대구광역시 달서구청",대구광역시 달서구 와룡로13길 15(본리동),대구광역시 달서구 본리동 404-2,어린이보호,1,200,회전,30,2015-01,053-667-3900,35.8380223,128.535939,2019-09-16
"대구광역시 달서구청",대구광역시 달서구 장기로 198-2(감삼동),대구광역시 달서구 감삼동 337-13,어린이보호,1,200,회전,30,2015-01,053-667-3900,35.84368716,128.5387671,2019-09-16
"대구광역시 달서구청",대구광역시 달서구 장기로 258(장기동),대구광역시 달서구 장기동 563-5,어린이보호,1,200,회전,30,2015-01,053-667-3900,35.84385212,128.5321041,2019-09-16
"대구광역시 달서구청",대구광역시 달서구 용산로 260(용산동),대구광역시 달서구 용산동 913,어린이보호,1,200,회전,30,2015-01,053-667-3900,35.86097211,128.5312555,2019-09-16
"대구광역시 달서구청",대구광역시 달서구 성서동로65길 28(이곡동),대구광역시 달서구 이곡동 1000-161,어린이보호,1,200,회전,30,2015-01,053-667-3900,35.85033849,128.5142569,2019-09-16
"대구광역시 달서구청",대구광역시 달서구 계대동문로3길 41(신당동),대구광역시 달서구 신당동 1708-8,어린이보호,1,200,회전,30,2015-01,053-667-3900,35.8576522,128.4940425,2019-09-16
"대구광역시 달서구청",대구광역시 달서구 조암남로16길 34(월성동),대구광역시 달서구 월성동 1441,어린이보호,1,200,회전,30,2015-01,053-667-3900,35.8229197,128.5226228,2019-09-16
"대구광역시 달서구청",대구광역시 달서구 조암남로 172-12(진천동),대구광역시 달서구 유천동 87,어린이보호,1,200,회전,30,2015-01,053-667-3900,35.81611431,128.5165805,2019-09-16
"대구광역시 달서구청",대구광역시 달서구 화암로 378(진천동),대구광역시 달서구 대곡동 1023,어린이보호,1,200,회전,30,2015-01,053-667-3900,35.8071035,128.5210477,2019-09-16
"대구광역시 달서구청",대구광역시 달서구 상화로 70(진천동),대구광역시 달서구 대곡동 1025,어린이보호,1,200,회전,30,2015-01,053-667-3900,35.80662752,128.5217528,2019-09-16
"대구광역시 달서구청",대구광역시 달서구 진천로3길 85-18(진천동),대구광역시 달서구 진천동 470-28,어린이보호,1,200,회전,30,2015-01,053-667-3900,35.80988327,128.5213094,2019-09-16
"대구광역시 달서구청",대구광역시 달서구 상원로 142,,어린이보호,1,200,회전,30,2015-01,053-667-3900,35.8210599,128.5303208,2019-09-16
"대구광역시 달서구청",대구광역시 달서구 송현로7안길 21(상인동),대구광역시 달서구 상인동 831,어린이보호,1,200,회전,30,2015-01,053-667-3900,35.81839942,128.5477856,2019-09-16
"대구광역시 달서구청",대구광역시 달서구 월곡로45길 49(상인동),대구광역시 달서구 상인동 1473,어린이보호,1,200,회전,30,2015-01,053-667-3900,35.8130096,128.5395536,2019-09-16
"대구광역시 달서구청",대구광역시 달서구 월곡로47안길 33(상인동),대구광역시 달서구 상인동 592,어린이보호,1,200,회전,30,2015-01,053-667-3900,35.8147453,128.5402171,2019-09-16
"대구광역시 달서구청",대구광역시 달서구 월곡로20길 17(상인동),대구광역시 달서구 상인동 1589-1,어린이보호,1,200,회전,30,2015-01,053-667-3900,35.80612544,128.5514006,2019-09-16
"대구광역시 달서구청",대구광역시 달서구 상인로 40(상인동),대구광역시 달서구 상인동 1560,어린이보호,1,200,회전,30,2015-01,053-667-3900,35.81216502,128.5492651,2019-09-16
"대구광역시 달서구청",대구광역시 달서구 월곡로26안길 17-3(상인동),대구광역시 달서구 상인동 1216-2,어린이보호,1,200,회전,30,2015-01,053-667-3900,35.8091233,128.5504365,2019-09-16
"대구광역시 달서구청",대구광역시 달서구 앞산순환로39안길 48(송현동),대구광역시 달서구 송현동 1967-5,어린이보호,1,200,회전,30,2015-01,053-667-3900,35.82377792,128.5524046,2019-09-16
"대구광역시 달서구청",대구광역시 달서구 월배로 303(송현동),대구광역시 달서구 송현동 892-21,어린이보호,1,200,회전,30,2015-01,053-667-3900,35.8235973,128.5435449,2019-09-16
"대구광역시 달서구청",대구광역시 달서구 송현로 192(본동),대구광역시 달서구 본동 275-1,어린이보호,1,200,회전,30,2015-01,053-667-3900,35.83490543,128.5453558,2019-09-16
"대구광역시 달서구청",대구광역시 달서구 파도고개로24길41(두류동),대구광역시 달서구 두류동 80-6,생활방범,1,200,회전,30,2015-01,053-667-3900,35.85893208,128.5673149,2019-09-16
"대구광역시 달서구청",대구광역시 달서구 본리서5길37(본리동),대구광역시 달서구 본리동 1215-3,생활방범,1,200,회전,30,2015-01,053-667-3900,35.83813116,128.5295088,2019-09-16
"대구광역시 달서구청",대구광역시 달서구 와룡로 112-21(본리동),대구광역시 달서구 본리동 27,생활방범,1,200,회전,30,2015-01,053-667-3900,35.84232858,128.5382266,2019-09-16
"대구광역시 달서구청",대구광역시 달서구 구마로 11길 9(본리동),대구광역시 달서구 본리동 664-2,생활방범,1,200,회전,30,2015-01,053-667-3900,35.83785058,128.533835,2019-09-16
"대구광역시 달서구청",대구광역시 달서구 와룡로14길 53,,생활방범,1,200,회전,30,2015-01,053-667-3900,35.8383216,128.5405441,2019-09-16
"대구광역시 달서구청",대구광역시 달서구 와룡로14길 29(본리동),대구광역시 달서구 본리동 355-8,생활방범,1,200,회전,30,2015-01,053-667-3900,35.8383147,128.5389047,2019-09-16
"대구광역시 달서구청",대구광역시 달서구 용산로4길 15(본리동),대구광역시 달서구 본리동 568-7,생활방범,1,200,회전,30,2015-01,053-667-3900,35.8386092,128.5316151,2019-09-16
"대구광역시 달서구청",대구광역시 달서구 구마로9길 43(본리동),대구광역시 달서구 본리동 562-2,생활방범,1,200,회전,30,2015-01,053-667-3900,35.83938181,128.5319659,2019-09-16
"대구광역시 달서구청",대구광역시 달서구 당산로41길92-5(감삼동),대구광역시 달서구 감삼동 48-15,생활방범,1,200,회전,30,2015-01,053-667-3900,35.85362825,128.5429043,2019-09-16
"대구광역시 달서구청",대구광역시 달서구 와룡로45길8(죽전동),대구광역시 달서구 죽전동 379-10,생활방범,1,200,회전,30,2015-01,053-667-3900,35.8531874,128.5367059,2019-09-16
"대구광역시 달서구청",대구광역시 달서구 용산로12길 43(장기동),대구광역시 달서구 장기동 552-17,생활방범,1,200,회전,30,2015-01,053-667-3900,35.8426035,128.5331806,2019-09-16
"대구광역시 달서구청",대구광역시 달서구 문화회관3안길 11(장기동),대구광역시 달서구 장기동 270-19,생활방범,1,200,회전,30,2015-01,053-667-3900,35.84741623,128.5209689,2019-09-16
"대구광역시 달서구청",대구광역시 달서구 와룡로49길 112-12(용산동),대구광역시 달서구 용산동 953-4,생활방범,1,200,회전,30,2015-01,053-667-3900,35.85491586,128.5311043,2019-09-16
"대구광역시 달서구청",대구광역시 달서구 와룡로53길 88(용산동),대구광역시 달서구 용산동 860-8,생활방범,1,200,회전,30,2015-01,053-667-3900,35.85693853,128.5323025,2019-09-16
"대구광역시 달서구청",대구광역시 달서구 성지로 12,,생활방범,1,200,회전,30,2015-01,053-667-3900,35.8530823,128.5168255,2019-09-16
"대구광역시 달서구청",대구광역시 달서구 선원남로174(용산동),대구광역시 달서구 용산동 416-4,생활방범,1,200,회전,30,2015-01,053-667-3900,35.85663763,128.5187043,2019-09-16
"대구광역시 달서구청",대구광역시 달서구 선원로33길 73(이곡동),대구광역시 달서구 이곡동 1336-7,생활방범,1,200,회전,30,2015-01,053-667-3900,35.86134061,128.5129031,2019-09-16
"대구광역시 달서구청",대구광역시 달서구 선원로37길 38(이곡동),대구광역시 달서구 이곡동 1347-1,생활방범,1,200,회전,30,2015-01,053-667-3900,35.8607457,128.5129092,2019-09-16
"대구광역시 달서구청",대구광역시 달서구 선원로37북길 8-11(이곡동),대구광역시 달서구 이곡동 1349-5,생활방범,1,200,회전,30,2015-01,053-667-3900,35.86025734,128.5132692,2019-09-16
"대구광역시 달서구청",대구광역시 달서구 선원로33길 17-30(이곡동),대구광역시 달서구 이곡동 1328,생활방범,1,200,회전,30,2015-01,053-667-3900,35.8608054,128.5090984,2019-09-16
"대구광역시 달서구청",대구광역시 달서구 선원로 137,,생활방범,1,200,회전,30,2015-01,053-667-3900,35.8595256,128.5090836,2019-09-16
"대구광역시 달서구청",대구광역시 달서구 선원남로 113(이곡동),대구광역시 달서구 이곡동 1306-7,생활방범,1,200,회전,30,2015-01,053-667-3900,35.8573778,128.5126682,2019-09-16
"대구광역시 달서구청",대구광역시 달서구 이곡공원로1길 52(이곡동),대구광역시 달서구 이곡동 139,생활방범,1,200,회전,30,2015-01,053-667-3900,35.85695896,128.5089299,2019-09-16
"대구광역시 달서구청",대구광역시 달서구 이곡공원로 54,,생활방범,1,200,회전,30,2015-01,053-667-3900,35.8545125,128.5135034,2019-09-16
"대구광역시 달서구청",대구광역시 달서구 성서공단북로60길 36(이곡동),대구광역시 달서구 갈산동 산51-11,생활방범,1,200,회전,30,2015-01,053-667-3900,35.8410503,128.5054454,2019-09-16
"대구광역시 달서구청",대구광역시 달서구 선원로11길 10(신당동),대구광역시 달서구 신당동 1693-18,생활방범,1,200,회전,30,2015-01,053-667-3900,35.85975082,128.4987502,2019-09-16
"대구광역시 달서구청",대구광역시 달서구 달구벌대로240길 7(신당동),대구광역시 달서구 신당동 312-9,생활방범,1,200,회전,30,2015-01,053-667-3900,35.85086528,128.4981600,2019-09-16
"대구광역시 달서구청",대구광역시 달서구 계대동문로9길 29(신당동),대구광역시 달서구 신당동 489,생활방범,1,200,회전,30,2015-01,053-667-3900,35.85686329,128.4973702,2019-09-16
"대구광역시 달서구청",대구광역시 달서구 서당로 15길 5(신당동),대구광역시 달서구 신당동 1734-12,생활방범,1,200,회전,30,2015-01,053-667-3900,35.85815103,128.4954739,2019-09-16
"대구광역시 달서구청",대구광역시 달서구 월곡로100길 11(월성동),대구광역시 달서구 월성동 1794-3,생활방범,1,200,회전,30,2015-01,053-667-3900,35.83517554,128.5231799,2019-09-16
"대구광역시 달서구청",대구광역시 달서구 진천로 27(진천동),대구광역시 달서구 진천동 482-36,생활방범,1,200,회전,30,2015-01,053-667-3900,35.81124411,128.5255096,2019-09-16
"대구광역시 달서구청",대구광역시 달서구 명천로 32,,생활방범,1,200,회전,30,2015-01,053-667-3900,35.8066768,128.5121619,2019-09-16
"대구광역시 달서구청",대구광역시 달서구 월곡로53동길78(상인동),대구광역시 달서구 상인동 1420,생활방범,1,200,회전,30,2015-01,053-667-3900,35.8134982,128.5387292,2019-09-16
"대구광역시 달서구청",대구광역시 달서구 월곡로53길16-12(상인동),대구광역시 달서구 상인동 1398-12,생활방범,1,200,회전,30,2015-01,053-667-3900,35.81804092,128.5375088,2019-09-16
"대구광역시 달서구청",대구광역시 달서구 도원로동길 6(도원동),대구광역시 달서구 도원동 1437-2,생활방범,1,200,회전,30,2015-01,053-667-3900,35.8076047,128.5364092,2019-09-16
"대구광역시 달서구청",대구광역시 달서구 송현로12안길32(송현동),대구광역시 달서구 송현동 1948-2,생활방범,1,200,회전,30,2015-01,053-667-3900,35.82277981,128.5479329,2019-09-16
"대구광역시 달서구청",대구광역시 달서구 송현로 2(송현동),대구광역시 달서구 송현동 1951-27,생활방범,1,200,회전,30,2015-01,053-667-3900,35.82044839,128.5512037,2019-09-16
"대구광역시 달서구청",대구광역시 달서구 앞산순환로63길67(송현동),대구광역시 달서구 송현동 296,생활방범,1,200,회전,30,2015-01,053-667-3900,35.83093973,128.5591105,2019-09-16
"대구광역시 달서구청",대구광역시 달서구 앞산순환로55길35(송현동),대구광역시 달서구 송현동 1989,생활방범,1,200,회전,30,2015-01,053-667-3900,35.82791332,128.5566454,2019-09-16
"대구광역시 달서구청",대구광역시 달서구 중흥로5길 16(송현동),대구광역시 달서구 송현동 2007-27,생활방범,1,200,회전,30,2015-01,053-667-3900,35.83126811,128.5562483,2019-09-16
"대구광역시 달서구청",대구광역시 달서구 중흥로 42-1(송현동),대구광역시 달서구 송현동 2005-12,생활방범,1,200,회전,30,2015-01,053-667-3900,35.83020293,128.5566163,2019-09-16
"대구광역시 달서구청",대구광역시 달서구 앞산순환로45길 46(송현동),대구광역시 달서구 송현동 1964-37,생활방범,1,200,회전,30,2015-01,053-667-3900,35.82496158,128.5517441,2019-09-16
"대구광역시 달서구청",대구광역시 달서구 앞산순환로55길111(송현동),대구광역시 달서구 송현동 1980-11,생활방범,1,200,회전,30,2015-01,053-667-3900,35.82980406,128.5532179,2019-09-16
"대구광역시 달서구청",대구광역시 달서구 월배로88길 86(송현동),대구광역시 달서구 송현동 1994-12,생활방범,1,200,회전,30,2015-01,053-667-3900,35.82964479,128.5564473,2019-09-16
"대구광역시 달서구청",대구광역시 달서구 송현동길 25(송현동),대구광역시 달서구 송현동 1904-3,생활방범,1,200,회전,30,2015-01,053-667-3900,35.83056099,128.5493147,2019-09-16
"대구광역시 달서구청",대구광역시 달서구 월배로 85길 25(송현동),대구광역시 달서구 송현동 183-40,생활방범,1,200,회전,30,2015-01,053-667-3900,35.83309311,128.5514131,2019-09-16
"대구광역시 달서구청",대구광역시 달서구 학산로 42길 33(송현동),대구광역시 달서구 송현동 171-15,생활방범,1,200,회전,30,2015-01,053-667-3900,35.8322126,128.5488391,2019-09-16
"대구광역시 달서구청",대구광역시 달서구 월배로 93길 37(송현동),대구광역시 달서구 송현동 135-2,생활방범,1,200,회전,30,2015-01,053-667-3900,35.83485974,128.5533624,2019-09-16
"대구광역시 달서구청",대구광역시 달서구 송현로 30길 25(송현동),대구광역시 달서구 송현동 580-2,생활방범,1,200,회전,30,2015-01,053-667-3900,35.83025118,128.5461028,2019-09-16
"대구광역시 달서구청",대구광역시 달서구 학산로 50길 11(송현동),대구광역시 달서구 송현동 142-7,생활방범,1,200,회전,30,2015-01,053-667-3900,35.83326633,128.5529418,2019-09-16
"대구광역시 달서구청",대구광역시 달서구 구마로46길 17(송현동),대구광역시 달서구 송현동 72-2,생활방범,1,200,회전,30,2015-01,053-667-3900,35.8362039,128.5529179,2019-09-16
"대구광역시 달서구청",대구광역시 달서구 송현동길 58(송현동),대구광역시 달서구 송현동 555-1,생활방범,1,200,회전,30,2015-01,053-667-3900,35.83081173,128.5477005,2019-09-16
"대구광역시 달서구청",대구광역시 달서구 월배로75길 27(송현동),대구광역시 달서구 송현동 1925-12,생활방범,1,200,회전,30,2015-01,053-667-3900,35.82886401,128.5479088,2019-09-16
"대구광역시 달서구청",대구광역시 달서구 월배로 85길 138(송현동),대구광역시 달서구 송현동 530-29,생활방범,1,200,회전,30,2015-01,053-667-3900,35.83341838,128.5453276,2019-09-16
"대구광역시 달서구청",대구광역시 달서구 월배로65길 35(송현동),대구광역시 달서구 송현동 1912-10,생활방범,1,200,회전,30,2015-01,053-667-3900,35.82517528,128.5444547,2019-09-16
"대구광역시 달서구청",대구광역시 달서구 학산로19길 33(본동),대구광역시 달서구 본동 944-3,생활방범,1,200,회전,30,2015-01,053-667-3900,35.83390869,128.5365425,2019-09-16
"대구광역시 달서구청",대구광역시 달서구 와룡로 5길 28(본동),대구광역시 달서구 본동 903-1,생활방범,1,200,회전,30,2015-01,053-667-3900,35.83515887,128.535123,2019-09-16
"대구광역시 달서구청",대구광역시 달서구 구마로26길 12(본동),대구광역시 달서구 본동 775,생활방범,1,200,회전,30,2015-01,053-667-3900,35.83663682,128.5412179,2019-09-16
"대구광역시 달서구청",대구광역시 달서구 와룡로4안길 35(본동),대구광역시 달서구 본동 851-2,생활방범,1,200,회전,30,2015-01,053-667-3900,35.83600397,128.5376192,2019-09-16
"대구광역시 달서구청",대구광역시 달서구 와룡로9길 95-6(본동),대구광역시 달서구 본동 699-1,생활방범,1,200,회전,30,2015-01,053-667-3900,35.83631116,128.5314163,2019-09-16
"대구광역시 달서구청",대구광역시 달서구 장기로 12길 38(성당동),대구광역시 달서구 성당동 540,생활방범,1,200,회전,30,2015-01,053-667-3900,35.84403437,128.5535591,2019-09-16
"대구광역시 달서구청",대구광역시 달서구 야외음악당로2길 38(성당동),대구광역시 달서구 성당동 826-35,생활방범,1,200,회전,30,2015-01,053-667-3900,35.83805382,128.5507016,2019-09-16
"대구광역시 달서구청",대구광역시 달서구 당산동1길 60(성당동),대구광역시 달서구 성당동 695-133,생활방범,1,200,회전,30,2015-01,053-667-3900,35.84759207,128.5462552,2019-09-16
"대구광역시 달서구청",대구광역시 달서구 대명천로16길 20(성당동),대구광역시 달서구 성당동 390-4,생활방범,1,200,회전,30,2015-01,053-667-3900,35.8399026,128.5516041,2019-09-16
"대구광역시 달서구청",대구광역시 달서구 성당로 117-9(성당동),대구광역시 달서구 성당동 129-7,생활방범,1,200,회전,30,2015-01,053-667-3900,35.84647855,128.5648126,2019-09-16
"대구광역시 달서구청",대구광역시 달서구 성당로 39길 11(성당동),대구광역시 달서구 성당동 74-8,생활방범,1,200,회전,30,2015-01,053-667-3900,35.85053948,128.5713733,2019-09-16
"대구광역시 달서구청",대구광역시 달서구 야외음악당로11길 70(성당동),대구광역시 달서구 성당동 566-4,생활방범,1,200,회전,30,2015-01,053-667-3900,35.84170305,128.5489800,2019-09-16
"대구광역시 달서구청",대구광역시 달서구 장기로 5길 21(성당동),대구광역시 달서구 성당동 459-1,생활방범,1,200,회전,30,2015-01,053-667-3900,35.84145834,128.5551241,2019-09-16
"대구광역시 달서구청",대구광역시 달서구 대명천로12길 12(성당동),대구광역시 달서구 성당동 373,생활방범,1,200,회전,30,2015-01,053-667-3900,35.83877897,128.5536996,2019-09-16
"대구광역시 달서구청",대구광역시 달서구 당산로 24길 90(성당동),대구광역시 달서구 성당동 678-13,생활방범,1,200,회전,30,2015-01,053-667-3900,35.8461505,128.5500756,2019-09-16
"대구광역시 달서구청",대구광역시 달서구 야외음악당로 29(성당동),대구광역시 달서구 성당동 390-11,생활방범,1,200,회전,30,2015-01,053-667-3900,35.83987424,128.5527144,2019-09-16
"대구광역시 달서구청",대구광역시 달서구 파도고개로1안길 44(성당동),대구광역시 달서구 성당동 52-62,생활방범,1,200,회전,30,2015-01,053-667-3900,35.8527668,128.5710132,2019-09-16
"대구광역시 달서구청",대구광역시 달서구 야외음악당로 7(성당동),대구광역시 달서구 성당동 828-21,생활방범,1,200,회전,30,2015-01,053-667-3900,35.8380086,128.5526648,2019-09-16
"대구광역시 달서구청",대구광역시 달서구 명덕로 3-6(두류동),대구광역시 달서구 두류동 1201-4,생활방범,1,200,회전,30,2015-01,053-667-3900,35.86180866,128.5727167,2019-09-16
"대구광역시 달서구청",대구광역시 달서구 명덕로 15(두류동),대구광역시 달서구 두류동 1192-66,생활방범,1,200,회전,30,2015-01,053-667-3900,35.86103864,128.5735305,2019-09-16
"대구광역시 달서구청",대구광역시 달서구 성당로 39길 82(두류동),대구광역시 달서구 두류동 1337-66,생활방범,1,200,회전,30,2015-01,053-667-3900,35.85314538,128.5692553,2019-09-16
"대구광역시 달서구청",대구광역시 달서구 야외음악당로49길39(두류동),대구광역시 달서구 두류동 140-7,생활방범,1,200,회전,30,2015-01,053-667-3900,35.85732179,128.5609149,2019-09-16
"대구광역시 달서구청",대구광역시 달서구 야외음악당로57길37(두류동),대구광역시 달서구 두류동 105-19,생활방범,1,200,회전,30,2015-01,053-667-3900,35.85832519,128.5641328,2019-09-16
"대구광역시 달서구청",대구광역시 달서구 파도고개로20길 49(두류동),대구광역시 달서구 두류동 1241-49,생활방범,1,200,회전,30,2015-01,053-667-3900,35.85755671,128.5684454,2019-09-16
"대구광역시 달서구청",대구광역시 달서구 파도고개로 8길 18(두류동),대구광역시 달서구 두류동 1168-44,생활방범,1,200,회전,30,2015-01,053-667-3900,35.8542773,128.5715773,2019-09-16
"대구광역시 달서구청",대구광역시 달서구 달구벌대로344길 26(두류동),대구광역시 달서구 두류동 492-18,생활방범,1,200,회전,30,2015-01,053-667-3900,35.8552501,128.5528622,2019-09-16
"대구광역시 달서구청",대구광역시 달서구 달구벌대로344길 9(두류동),대구광역시 달서구 두류동 490-14,생활방범,1,200,회전,30,2015-01,053-667-3900,35.85581455,128.5536144,2019-09-16
"대구광역시 달서구청",대구광역시 달서구 달구벌대로340길 27(두류동),대구광역시 달서구 두류동 610-1,생활방범,1,200,회전,30,2015-01,053-667-3900,35.85416361,128.551969,2019-09-16
"대구광역시 달서구청",대구광역시 달서구 당산로 36길 3(두류동),대구광역시 달서구 두류동 630-35,생활방범,1,200,회전,30,2015-01,053-667-3900,35.8524551,128.5491339,2019-09-16
"대구광역시 달서구청",대구광역시 달서구 야외음악당로39길24(두류동),대구광역시 달서구 두류동 484-17,생활방범,1,200,회전,30,2015-01,053-667-3900,35.85370576,128.5554754,2019-09-16
"대구광역시 달서구청",대구광역시 달서구 야외음악당로33길13(두류동),대구광역시 달서구 두류동 637-20,생활방범,1,200,회전,30,2015-01,053-667-3900,35.85168819,128.5532249,2019-09-16
"대구광역시 달서구청",대구광역시 달서구 와룡로 24길 20(본리동),대구광역시 달서구 본리동 29-1,생활방범,1,200,회전,30,2015-01,053-667-3900,35.84280587,128.5383184,2019-09-16
"대구광역시 달서구청",대구광역시 달서구 대명천로 43길 40(본리동),대구광역시 달서구 본리동 393-1,생활방범,1,200,회전,30,2015-01,053-667-3900,35.83991449,128.5358856,2019-09-16
"대구광역시 달서구청",대구광역시 달서구 대명천로47길 14(본리동),대구광역시 달서구 본리동 425-2,생활방범,1,200,회전,30,2015-01,053-667-3900,35.8412141,128.5344632,2019-09-16
"대구광역시 달서구청",대구광역시 달서구 당산로 37-14(본리동),대구광역시 달서구 본리동 110-4,생활방범,1,200,회전,30,2015-01,053-667-3900,35.8410174,128.5431658,2019-09-16
"대구광역시 달서구청",대구광역시 달서구 대명천로51길 39(본리동),대구광역시 달서구 본리동 431-3,생활방범,1,200,고정,30,2012-01,053-667-3900,35.84003321,128.5336041,2019-09-16
"대구광역시 달서구청",대구광역시 달서구 감삼남2안길 35(감삼동),대구광역시 달서구 감삼동 184-11,생활방범,1,200,회전,30,2015-01,053-667-3900,35.8467467,128.5412356,2019-09-16
"대구광역시 달서구청",대구광역시 달서구 달구벌대로330길 58(감삼동),대구광역시 달서구 감삼동 115-21,생활방범,1,200,회전,30,2015-01,053-667-3900,35.85127094,128.5459373,2019-09-16
"대구광역시 달서구청",대구광역시 달서구 감삼4길 7(감삼동),대구광역시 달서구 감삼동 137-9,생활방범,1,200,회전,30,2015-01,053-667-3900,35.85045963,128.542288,2019-09-16
"대구광역시 달서구청",대구광역시 달서구 감삼남2길 48(감삼동),대구광역시 달서구 감삼동 284-11,생활방범,1,200,회전,30,2015-01,053-667-3900,35.84558756,128.5391045,2019-09-16
"대구광역시 달서구청",대구광역시 달서구 감삼남4길 5-34(감삼동),대구광역시 달서구 감삼동 192-4,생활방범,1,200,회전,30,2015-01,053-667-3900,35.84842699,128.5430172,2019-09-16
"대구광역시 달서구청",대구광역시 달서구 감삼길 64(감삼동),대구광역시 달서구 감삼동 147-8,생활방범,1,200,회전,30,2015-01,053-667-3900,35.85007542,128.5412461,2019-09-16
"대구광역시 달서구청",대구광역시 달서구 감삼남4길 20(감삼동),대구광역시 달서구 감삼동 189-28,생활방범,1,200,회전,30,2015-01,053-667-3900,35.8479499,128.5422456,2019-09-16
"대구광역시 달서구청",대구광역시 달서구 감삼남길 110(감삼동),대구광역시 달서구 감삼동 190-3,생활방범,1,200,회전,30,2015-01,053-667-3900,35.84888686,128.5429761,2019-09-16
"대구광역시 달서구청",대구광역시 달서구 죽전3길 13-5(감삼동),대구광역시 달서구 감삼동 41-8,생활방범,1,200,회전,30,2015-01,053-667-3900,35.85424979,128.5409756,2019-09-16
"대구광역시 달서구청",대구광역시 달서구 당산로41길 30-3(감삼동),대구광역시 달서구 감삼동 57-21,생활방범,1,200,회전,30,2015-01,053-667-3900,35.85476717,128.5461384,2019-09-16
"대구광역시 달서구청",대구광역시 달서구 용산큰못길 55(용산동),대구광역시 달서구 용산동 958-14,생활방범,1,200,회전,30,2015-01,053-667-3900,35.86143145,128.5272503,2019-09-16
"대구광역시 달서구청",대구광역시 달서구 와룡로53길 100(용산동),대구광역시 달서구 용산동 858-13,생활방범,1,200,회전,30,2015-01,053-667-3900,35.85694124,128.5317134,2019-09-16
"대구광역시 달서구청",대구광역시 달서구 장산 1길 31(용산동),대구광역시 달서구 용산동 947,생활방범,1,200,회전,30,2015-01,053-667-3900,35.85433412,128.5240257,2019-09-16
"대구광역시 달서구청",대구광역시 달서구 용산큰못1길 38,,생활방범,1,200,회전,30,2015-01,053-667-3900,35.8594581,128.5259959,2019-09-16
"대구광역시 달서구청",대구광역시 달서구 장산1길 124,,생활방범,1,200,회전,30,2015-01,053-667-3900,35.8583314,128.525602,2019-09-16
"대구광역시 달서구청",대구광역시 달서구 성서로 72길 53(이곡동),대구광역시 달서구 이곡동 1000-92,생활방범,1,200,회전,30,2015-01,053-667-3900,35.84948966,128.5104098,2019-09-16
"대구광역시 달서구청",대구광역시 달서구 성서공단로 15길 41(신당동),대구광역시 달서구 호림동 11-9,생활방범,1,200,회전,30,2015-01,053-667-3900,35.83887534,128.4901732,2019-09-16
"대구광역시 달서구청",대구광역시 달서구 월배로39길26(상인동),대구광역시 달서구 상인동 95,생활방범,1,200,회전,30,2015-01,053-667-3900,35.8199118,128.5333122,2019-09-16
"대구광역시 달서구청",대구광역시 달서구 앞산순환로 206(송현동),대구광역시 달서구 송현동 694,생활방범,1,200,회전,30,2015-01,053-667-3900,35.8216975,128.5544088,2019-09-16
"대구광역시 달서구청",대구광역시 달서구 앞산순환로 206(송현동),대구광역시 달서구 송현동 694,생활방범,1,200,회전,30,2015-01,053-667-3900,35.8216975,128.5544088,2019-09-16
"대구광역시 달서구청",대구광역시 달서구 월배로64길 32(송현동),대구광역시 달서구 송현동 1946-14,생활방범,1,200,회전,30,2015-01,053-667-3900,35.82356505,128.5477262,2019-09-16
"대구광역시 달서구청",대구광역시 달서구 송현로12길 15(송현동),대구광역시 달서구 송현동 1944-6,생활방범,1,200,회전,30,2015-01,053-667-3900,35.82396673,128.5466843,2019-09-16
"대구광역시 달서구청",대구광역시 달서구 학산로36길 17(송현동),대구광역시 달서구 송현동 518,생활방범,1,200,회전,30,2015-01,053-667-3900,35.83306294,128.5462021,2019-09-16
